,Unnamed: 0,key,bandera_id,lat,lng,sucursalnombre,id_,sucursaltipo,provincia,promo1_descripcion,promo1_precio,preciolista,promo2_descripcion,promo2_precio,actualizadohoy,direccion,banderadescripcion,localidad,comerciorazonsocial,comercioid,marca,nombre,presentacion,fecha,Cluster
1050819,1050819,sucursales,2,-38.931846,-67.984138,Cipoletti,7790387013627,Hipermercado,AR-R,"Llevando 1 unidades, pagás $337.51 c/u, promoción válida hasta el 2022-09-08 o hasta agotar stock, o lo que ocurra primero.",337.51,337.51,,,True,Bolivia 1169,Changomas,CIPOLLETTI,Wal Mart Argentina S.R.L.,11,TARAGUI,Yerba Mate con Palo 4Flex Taragui 500 Gr,500.0 gr,2022-08-25,Cluster 1
1050829,1050829,sucursales,1,-35.487759,-62.975086,367 - AMERICA,7790387013627,Autoservicio,AR-B,0% de descuento. Precio Promocional Exclusivo DIA en Sucursales Indicadas Hasta Agotar Stock o Finalice Vigencia.,312.51,312.51,,,True,San Martin 156,Supermercados DIA,BUENOS AIRES,DIA Argentina S.A,15,TARAGUI,Yerba Mate con Palo 4Flex Taragui 500 Gr,500.0 gr,2022-08-25,Cluster 1
1056072,1056072,sucursales,1,-34.764896,-61.892818,353 - GRAL PINTO,7790070507389,Autoservicio,AR-B,,,402.0,,,True,Adolfo Alsina 540,Supermercados DIA,BUENOS AIRES,DIA Argentina S.A,15,CRUZ DE MALTA,Yerba Mate Hojas mas Grandes Cruz de Malta 500 Gr,500.0 gr,2022-08-24,Cluster 2
1056079,1056079,sucursales,3,-34.574828,-58.436126,Cabildo 34,7790070507389,Autoservicio,AR-C,,,422.0,,,True,Av. Cabildo 34,Express,Ciudad Autónoma de Buenos Aires,INC S.A.,10,CRUZ DE MALTA,Yerba Mate Hojas mas Grandes Cruz de Malta 500 Gr,500.0 gr,2022-08-24,Cluster 2
1056083,1056083,sucursales,1,-36.788827761866905,-59.871529162628576,Azul II,7790387015607,Supermercado,AR-B,,,575.0,,,True,Av. 25 De Mayo 1272,Cooperativa Obrera Limitada de Consumo y Vivienda,Azul,Cooperativa Obrera Limitada de Consumo y Vivienda,13,LA MERCED,Yerba Mate Campo Origen Controlado La Merced 500 Gr,500.0 gr,2022-08-24,Cluster 0
1056084,1056084,sucursales,1,-40.8148,-63.0052,Viedma,7790387015607,Hipermercado,AR-R,,,599.0,,,True,Saavedra 1455,Cooperativa Obrera Limitada de Consumo y Vivienda,Viedma,Cooperativa Obrera Limitada de Consumo y Vivienda,13,LA MERCED,Yerba Mate Campo Origen Controlado La Merced 500 Gr,500.0 gr,2022-08-24,Cluster 0
1056093,1056093,sucursales,1,-34.6519788,-58.4267385,5133 - NUEVA POMPEYA,7790387015607,Autoservicio,AR-C,,,592.0,,,True,Corrales 1669,Supermercados DIA,CAPITAL FEDERAL,DIA Argentina S.A,15,LA MERCED,Yerba Mate Campo Origen Controlado La Merced 500 Gr,500.0 gr,2022-08-24,Cluster 0
1056098,1056098,sucursales,1,-38.5611,-58.7305,NECOCHEA,7790387015607,Supermercado,AR-B,,,571.0,,,True,Av. 59 Esq. Calle 38 1660,Vea,NECOCHEA,Jumbo Retail Argentina S.A.,9,LA MERCED,Yerba Mate Campo Origen Controlado La Merced 500 Gr,500.0 gr,2022-08-24,Cluster 0
1056109,1056109,sucursales,1,-32.2190005,-58.1482778,1508 - COLON,7790387015324,Autoservicio,AR-E,,,374.0,,,True,Av Pte.Peron 378,Supermercados DIA,ENTRE RIOS,DIA Argentina S.A,15,MAÑANITA,Yerba Mate Bajo Polvo 4 Flex Mañanita 500 Gr,500.0 gr,2022-08-24,Cluster 2
1062003,1062003,sucursales,1,-34.5520142,-58.4736585,317 - NÚÑEZ,7790387015607,Autoservicio,AR-C,,,592.0,,,True,Cl Crisologo Larralde 3012,Supermercados DIA,CAPITAL FEDERAL,DIA Argentina S.A,15,LA MERCED,Yerba Mate Campo Origen Controlado La Merced 500 Gr,500.0 gr,2022-08-25,Cluster 0
1062018,1062018,sucursales,1,-32.2252713,-58.1454569,319 - COLON,7790387015607,Autoservicio,AR-E,,,592.0,,,True,Cl San Martin 680,Supermercados DIA,ENTRE RIOS,DIA Argentina S.A,15,LA MERCED,Yerba Mate Campo Origen Controlado La Merced 500 Gr,500.0 gr,2022-08-25,Cluster 0
1062066,1062066,sucursales,1,-34.651709,-58.41803,336 - NUEVA POMPEYA,7790387015607,Autoservicio,AR-C,,,592.0,,,True,Esquiu 1001,Supermercados DIA,CAPITAL FEDERAL,DIA Argentina S.A,15,LA MERCED,Yerba Mate Campo Origen Controlado La Merced 500 Gr,500.0 gr,2022-08-25,Cluster 0
1062084,1062084,sucursales,1,-35.050929,-58.7648874,342 - CAÑUELAS,7790387015607,Autoservicio,AR-B,,,592.0,,,True,Av Libertad 1256,Supermercados DIA,BUENOS AIRES,DIA Argentina S.A,15,LA MERCED,Yerba Mate Campo Origen Controlado La Merced 500 Gr,500.0 gr,2022-08-25,Cluster 0
1062112,1062112,sucursales,3,-34.408965,-58.771632,Ruta 26 - 162,7790070507389,Autoservicio,AR-B,,,422.0,,,True,Rp26 162,Express,Maquinista Savio,INC S.A.,10,CRUZ DE MALTA,Yerba Mate Hojas mas Grandes Cruz de Malta 500 Gr,500.0 gr,2022-08-25,Cluster 2
1062116,1062116,sucursales,1,-32.9416062,-60.6448748,ROSARIO,7790070507389,Hipermercado,AR-S,,,410.6,,,True,Urquiza 1644,COTO CICSA,Rosario,Coto Centro Integral de Comercialización S.A.,12,CRUZ DE MALTA,Yerba Mate Hojas mas Grandes Cruz de Malta 500 Gr,500.0 gr,2022-08-25,Cluster 2
1062118,1062118,sucursales,1,-38.7225,-62.289499999999975,B° Noroeste,7790070507389,Supermercado,AR-B,,,417.0,,,True,Avellaneda 826,Cooperativa Obrera Limitada de Consumo y Vivienda,Bahía Blanca,Cooperativa Obrera Limitada de Consumo y Vivienda,13,CRUZ DE MALTA,Yerba Mate Hojas mas Grandes Cruz de Malta 500 Gr,500.0 gr,2022-08-25,Cluster 2
1062129,1062129,sucursales,2,-34.603431,-58.592464,Palomar,7790070507389,Supermercado,AR-B,,,402.0,,,True,De Los Ceibos 233,Market,Ciudad Jardín del Palomar,INC S.A.,10,CRUZ DE MALTA,Yerba Mate Hojas mas Grandes Cruz de Malta 500 Gr,500.0 gr,2022-08-25,Cluster 2
1062145,1062145,sucursales,1,-34.6027526,-58.4114132,ABASTO ,7790387015324,Hipermercado,AR-C,,,393.29,,,True,Agüero 616,COTO CICSA,Abasto,Coto Centro Integral de Comercialización S.A.,12,MAÑANITA,Yerba Mate Bajo Polvo 4 Flex Mañanita 500 Gr,500.0 gr,2022-08-25,Cluster 2
1062152,1062152,sucursales,2,-34.454772,-58.910154,Pilar Super,7790387015324,Supermercado,AR-B,,,373.0,,,True,Ramírez 43,Market,Pilar,INC S.A.,10,MAÑANITA,Yerba Mate Bajo Polvo 4 Flex Mañanita 500 Gr,500.0 gr,2022-08-25,Cluster 2
1075009,1075009,sucursales,1,-24.7880714,-65.4219001,8013 - SALTA,7793704000911,Autoservicio,AR-A,,,392.47,,,True,Brown 70,Supermercados DIA,SALTA,DIA Argentina S.A,15,PLAYADITO,Yerba Mate Suave con Palo Playadito 500 Gr,500.0 gr,2022-08-25,Cluster 2
1075013,1075013,sucursales,1,-31.25349,-61.49254,QUIJOTE CENTRO,7793704000911,Hipermercado,AR-S,,,386.97,,,True,Rivadavia 53,La Anonima,Rafaela,S.A. Importadora y Exportadora de la Patagonia,2,PLAYADITO,Yerba Mate Suave con Palo Playadito 500 Gr,500.0 gr,2022-08-25,Cluster 2
1075015,1075015,sucursales,2,-34.454772,-58.910154,Pilar Super,7793704000911,Supermercado,AR-B,,,366.8,,,True,Ramírez 43,Market,Pilar,INC S.A.,10,PLAYADITO,Yerba Mate Suave con Palo Playadito 500 Gr,500.0 gr,2022-08-25,Cluster 2
1075022,1075022,sucursales,1,-40.81017056502792,-63.00089469554223,Viedma II,7790387013627,Autoservicio,AR-R,,,337.5,,,True,Moreno 1036,Cooperativa Obrera Limitada de Consumo y Vivienda,Viedma,Cooperativa Obrera Limitada de Consumo y Vivienda,13,TARAGUI,Yerba Mate con Palo 4Flex Taragui 500 Gr,500.0 gr,2022-08-25,Cluster 1
1075025,1075025,sucursales,2,-34.553168,-58.46577,Núñez,7790387013627,Supermercado,AR-C,,,312.51,,,True,Av. Cabildo 3190,Market,Ciudad Autónoma de Buenos Aires,INC S.A.,10,TARAGUI,Yerba Mate con Palo 4Flex Taragui 500 Gr,500.0 gr,2022-08-25,Cluster 1
1075027,1075027,sucursales,2,-34.799052,-58.395114,Adrogué,7790387013627,Supermercado,AR-B,,,312.51,,,True,Seguí 849,Market,Adrogué,INC S.A.,10,TARAGUI,Yerba Mate con Palo 4Flex Taragui 500 Gr,500.0 gr,2022-08-25,Cluster 1
1075032,1075032,sucursales,2,-34.454772,-58.910154,Pilar Super,7790387013627,Supermercado,AR-B,,,312.51,,,True,Ramírez 43,Market,Pilar,INC S.A.,10,TARAGUI,Yerba Mate con Palo 4Flex Taragui 500 Gr,500.0 gr,2022-08-25,Cluster 1
1075036,1075036,sucursales,1,-31.4116,-64.1893,Colon II.,7790387013627,Supermercado,AR-X,,,329.7,,,True,Avenida Colon 461,Vea,CORDOBA,Jumbo Retail Argentina S.A.,9,TARAGUI,Yerba Mate con Palo 4Flex Taragui 500 Gr,500.0 gr,2022-08-25,Cluster 1
1075369,1075369,sucursales,3,-34.653948,-58.51897,Carhué 1427,7790070507389,Autoservicio,AR-C,,,422.0,,,True,Carhué 1427,Express,Ciudad Autónoma de Buenos Aires,INC S.A.,10,CRUZ DE MALTA,Yerba Mate Hojas mas Grandes Cruz de Malta 500 Gr,500.0 gr,2022-08-24,Cluster 2
1075534,1075534,sucursales,2,-27.467798,-58.834021,Corrientes Junin,7790070507389,Hipermercado,AR-W,,,406.0,,,True,Junín 1336,Market,Corrientes,INC S.A.,10,CRUZ DE MALTA,Yerba Mate Hojas mas Grandes Cruz de Malta 500 Gr,500.0 gr,2022-08-24,Cluster 2
1075536,1075536,sucursales,2,-33.302748,-66.336848,San Luis,7790070507389,Supermercado,AR-D,,,406.0,,,True,Pringles 963,Market,San Luis,INC S.A.,10,CRUZ DE MALTA,Yerba Mate Hojas mas Grandes Cruz de Malta 500 Gr,500.0 gr,2022-08-24,Cluster 2
1075582,1075582,sucursales,1,-41.13139,-71.36124,BARILOCHE 3,7790070507389,Supermercado,AR-R,15% de descuento con cualquier medio de pago - Vigencia: Desde el 24/08/2022 Hasta el 04/09/2022 - Stock: Hasta agotar stock.,383.35,451.0,,,True,Av. De Los Pioneros 4400,La Anonima,San Carlos de Bariloche,S.A. Importadora y Exportadora de la Patagonia,2,CRUZ DE MALTA,Yerba Mate Hojas mas Grandes Cruz de Malta 500 Gr,500.0 gr,2022-08-24,Cluster 2
1075583,1075583,sucursales,1,-41.14,-71.30168,BARILOCHE 2,7790070507389,Hipermercado,AR-R,15% de descuento con cualquier medio de pago - Vigencia: Desde el 24/08/2022 Hasta el 04/09/2022 - Stock: Hasta agotar stock.,383.35,451.0,,,True,Albarracin 601,La Anonima,San Carlos de Bariloche,S.A. Importadora y Exportadora de la Patagonia,2,CRUZ DE MALTA,Yerba Mate Hojas mas Grandes Cruz de Malta 500 Gr,500.0 gr,2022-08-24,Cluster 2
1075584,1075584,sucursales,1,-43.24702,-65.31071,TRELEW,7790070507389,Supermercado,AR-U,15% de descuento con cualquier medio de pago - Vigencia: Desde el 24/08/2022 Hasta el 04/09/2022 - Stock: Hasta agotar stock.,383.35,451.0,,,True,Belgrano 292,La Anonima,Trelew,S.A. Importadora y Exportadora de la Patagonia,2,CRUZ DE MALTA,Yerba Mate Hojas mas Grandes Cruz de Malta 500 Gr,500.0 gr,2022-08-24,Cluster 2
1075585,1075585,sucursales,1,-43.26212,-65.29349,TRELEW FONTANA,7790070507389,Supermercado,AR-U,15% de descuento con cualquier medio de pago - Vigencia: Desde el 24/08/2022 Hasta el 04/09/2022 - Stock: Hasta agotar stock.,383.35,451.0,,,True,H.Yrigoyen 1650,La Anonima,Trelew,S.A. Importadora y Exportadora de la Patagonia,2,CRUZ DE MALTA,Yerba Mate Hojas mas Grandes Cruz de Malta 500 Gr,500.0 gr,2022-08-24,Cluster 2
1075586,1075586,sucursales,1,-45.8687,-67.50227,COMODORO RIVADAVIA,7790070507389,Hipermercado,AR-U,15% de descuento con cualquier medio de pago - Vigencia: Desde el 24/08/2022 Hasta el 04/09/2022 - Stock: Hasta agotar stock.,383.35,451.0,,,True,13 De Diciembre 150,La Anonima,Comodoro Rivadavia,S.A. Importadora y Exportadora de la Patagonia,2,CRUZ DE MALTA,Yerba Mate Hojas mas Grandes Cruz de Malta 500 Gr,500.0 gr,2022-08-24,Cluster 2
1075587,1075587,sucursales,1,-45.86105,-67.47518,FILIAL SAN MARTIN,7790070507389,Hipermercado,AR-U,15% de descuento con cualquier medio de pago - Vigencia: Desde el 24/08/2022 Hasta el 04/09/2022 - Stock: Hasta agotar stock.,383.35,451.0,,,True,San Martin 100,La Anonima,Comodoro Rivadavia,S.A. Importadora y Exportadora de la Patagonia,2,CRUZ DE MALTA,Yerba Mate Hojas mas Grandes Cruz de Malta 500 Gr,500.0 gr,2022-08-24,Cluster 2
1075588,1075588,sucursales,1,-46.44789,-67.52006,CALETA OLIVIA,7790070507389,Hipermercado,AR-Z,15% de descuento con cualquier medio de pago - Vigencia: Desde el 24/08/2022 Hasta el 04/09/2022 - Stock: Hasta agotar stock.,383.35,451.0,,,True,Av. Del Trabajo 469,La Anonima,Caleta Olivia,S.A. Importadora y Exportadora de la Patagonia,2,CRUZ DE MALTA,Yerba Mate Hojas mas Grandes Cruz de Malta 500 Gr,500.0 gr,2022-08-24,Cluster 2
1075589,1075589,sucursales,1,-46.44466,-67.52854,CALETA OLIVIA 2,7790070507389,Supermercado,AR-Z,15% de descuento con cualquier medio de pago - Vigencia: Desde el 24/08/2022 Hasta el 04/09/2022 - Stock: Hasta agotar stock.,383.35,451.0,,,True,Belgrano 515,La Anonima,Caleta Olivia,S.A. Importadora y Exportadora de la Patagonia,2,CRUZ DE MALTA,Yerba Mate Hojas mas Grandes Cruz de Malta 500 Gr,500.0 gr,2022-08-24,Cluster 2
1075590,1075590,sucursales,1,-51.62095,-69.21631,RIO GALLEGOS,7790070507389,Supermercado,AR-Z,15% de descuento con cualquier medio de pago - Vigencia: Desde el 24/08/2022 Hasta el 04/09/2022 - Stock: Hasta agotar stock.,383.35,451.0,,,True,Av. Roca 973,La Anonima,Rio Gallegos,S.A. Importadora y Exportadora de la Patagonia,2,CRUZ DE MALTA,Yerba Mate Hojas mas Grandes Cruz de Malta 500 Gr,500.0 gr,2022-08-24,Cluster 2
1075591,1075591,sucursales,1,-54.79809,-68.27878,USHUAIA,7790070507389,Hipermercado,AR-V,15% de descuento con cualquier medio de pago - Vigencia: Desde el 24/08/2022 Hasta el 04/09/2022 - Stock: Hasta agotar stock.,362.95,427.0,,,True,Perito Moreno 1550,La Anonima,Ushuaia,S.A. Importadora y Exportadora de la Patagonia,2,CRUZ DE MALTA,Yerba Mate Hojas mas Grandes Cruz de Malta 500 Gr,500.0 gr,2022-08-24,Cluster 2
1075592,1075592,sucursales,1,-40.73091,-64.93972,SAN ANTONIO OESTE,7790070507389,Supermercado,AR-R,15% de descuento con cualquier medio de pago - Vigencia: Desde el 24/08/2022 Hasta el 04/09/2022 - Stock: Hasta agotar stock.,383.35,451.0,,,True,Belgrano 651,La Anonima,San Antonio Oeste,S.A. Importadora y Exportadora de la Patagonia,2,CRUZ DE MALTA,Yerba Mate Hojas mas Grandes Cruz de Malta 500 Gr,500.0 gr,2022-08-24,Cluster 2
1075593,1075593,sucursales,1,-40.81634,-63.00303,VIEDMA 2,7790070507389,Supermercado,AR-R,15% de descuento con cualquier medio de pago - Vigencia: Desde el 24/08/2022 Hasta el 04/09/2022 - Stock: Hasta agotar stock.,371.45,437.0,,,True,Alvaro Barros 1408,La Anonima,Viedma,S.A. Importadora y Exportadora de la Patagonia,2,CRUZ DE MALTA,Yerba Mate Hojas mas Grandes Cruz de Malta 500 Gr,500.0 gr,2022-08-24,Cluster 2
1075594,1075594,sucursales,1,-38.89284,-70.06664,ZAPALA,7790070507389,Supermercado,AR-Q,15% de descuento con cualquier medio de pago - Vigencia: Desde el 24/08/2022 Hasta el 04/09/2022 - Stock: Hasta agotar stock.,383.35,451.0,,,True,9 De Julio 574,La Anonima,Zapala,S.A. Importadora y Exportadora de la Patagonia,2,CRUZ DE MALTA,Yerba Mate Hojas mas Grandes Cruz de Malta 500 Gr,500.0 gr,2022-08-24,Cluster 2
1075595,1075595,sucursales,1,-38.93982,-67.9953,CIPOLLETTI 2,7790070507389,Supermercado,AR-R,15% de descuento con cualquier medio de pago - Vigencia: Desde el 24/08/2022 Hasta el 04/09/2022 - Stock: Hasta agotar stock.,371.45,437.0,,,True,Roca 623,La Anonima,Cipolletti,S.A. Importadora y Exportadora de la Patagonia,2,CRUZ DE MALTA,Yerba Mate Hojas mas Grandes Cruz de Malta 500 Gr,500.0 gr,2022-08-24,Cluster 2
1075596,1075596,sucursales,1,-33.74657,-61.96796,VENADO TUERTO,7790070507389,Supermercado,AR-S,15% de descuento con cualquier medio de pago - Vigencia: Desde el 24/08/2022 Hasta el 04/09/2022 - Stock: Hasta agotar stock.,371.45,437.0,,,True,Av.Casey 799,La Anonima,Venado Tuerto,S.A. Importadora y Exportadora de la Patagonia,2,CRUZ DE MALTA,Yerba Mate Hojas mas Grandes Cruz de Malta 500 Gr,500.0 gr,2022-08-24,Cluster 2
1075597,1075597,sucursales,1,-38.947,-68.07342,HIPERMERCADO NEUQUEN,7790070507389,Supermercado,AR-Q,15% de descuento con cualquier medio de pago - Vigencia: Desde el 24/08/2022 Hasta el 04/09/2022 - Stock: Hasta agotar stock.,371.45,437.0,,,True,Antartida Argentina 1111,La Anonima,Neuquen,S.A. Importadora y Exportadora de la Patagonia,2,CRUZ DE MALTA,Yerba Mate Hojas mas Grandes Cruz de Malta 500 Gr,500.0 gr,2022-08-24,Cluster 2
1075598,1075598,sucursales,1,-51.63219,-69.19812,AUTOSERVICIO 2 R.GALLEGOS,7790070507389,Hipermercado,AR-Z,15% de descuento con cualquier medio de pago - Vigencia: Desde el 24/08/2022 Hasta el 04/09/2022 - Stock: Hasta agotar stock.,383.35,451.0,,,True,Maipu 1332,La Anonima,Rio Gallegos,S.A. Importadora y Exportadora de la Patagonia,2,CRUZ DE MALTA,Yerba Mate Hojas mas Grandes Cruz de Malta 500 Gr,500.0 gr,2022-08-24,Cluster 2
1075599,1075599,sucursales,1,-53.77885,-67.71814,RIO GRANDE 4,7790070507389,Hipermercado,AR-V,15% de descuento con cualquier medio de pago - Vigencia: Desde el 24/08/2022 Hasta el 04/09/2022 - Stock: Hasta agotar stock.,362.95,427.0,,,True,Av.San Martin 1605,La Anonima,Rio Grande,S.A. Importadora y Exportadora de la Patagonia,2,CRUZ DE MALTA,Yerba Mate Hojas mas Grandes Cruz de Malta 500 Gr,500.0 gr,2022-08-24,Cluster 2
1075600,1075600,sucursales,1,-38.9304,-69.21067,PLAZA HUINCUL,7790070507389,Supermercado,AR-Q,15% de descuento con cualquier medio de pago - Vigencia: Desde el 24/08/2022 Hasta el 04/09/2022 - Stock: Hasta agotar stock.,383.35,451.0,,,True,Copahue 20,La Anonima,Plaza Huincul,S.A. Importadora y Exportadora de la Patagonia,2,CRUZ DE MALTA,Yerba Mate Hojas mas Grandes Cruz de Malta 500 Gr,500.0 gr,2022-08-24,Cluster 2
1075601,1075601,sucursales,1,-41.13798,-71.29846,BARILOCHE 4,7790070507389,Supermercado,AR-R,15% de descuento con cualquier medio de pago - Vigencia: Desde el 24/08/2022 Hasta el 04/09/2022 - Stock: Hasta agotar stock.,383.35,451.0,,,True,Gallardo 801,La Anonima,San Carlos de Bariloche,S.A. Importadora y Exportadora de la Patagonia,2,CRUZ DE MALTA,Yerba Mate Hojas mas Grandes Cruz de Malta 500 Gr,500.0 gr,2022-08-24,Cluster 2
1075602,1075602,sucursales,1,-34.60717,-60.96252,JUNIN,7790070507389,Supermercado,AR-B,15% de descuento con cualquier medio de pago - Vigencia: Desde el 24/08/2022 Hasta el 04/09/2022 - Stock: Hasta agotar stock.,371.45,437.0,,,True,Ruta 7 Km 260,La Anonima,Junin,S.A. Importadora y Exportadora de la Patagonia,2,CRUZ DE MALTA,Yerba Mate Hojas mas Grandes Cruz de Malta 500 Gr,500.0 gr,2022-08-24,Cluster 2
1075603,1075603,sucursales,1,-36.6323,-64.29628,SANTA ROSA,7790070507389,Hipermercado,AR-L,15% de descuento con cualquier medio de pago - Vigencia: Desde el 24/08/2022 Hasta el 04/09/2022 - Stock: Hasta agotar stock.,371.45,437.0,,,True,Ameghino 1250,La Anonima,Santa Rosa,S.A. Importadora y Exportadora de la Patagonia,2,CRUZ DE MALTA,Yerba Mate Hojas mas Grandes Cruz de Malta 500 Gr,500.0 gr,2022-08-24,Cluster 2
1075604,1075604,sucursales,1,-39.02793,-67.59007,AUTOSERVICIO 2 G.ROCA,7790070507389,Supermercado,AR-R,15% de descuento con cualquier medio de pago - Vigencia: Desde el 24/08/2022 Hasta el 04/09/2022 - Stock: Hasta agotar stock.,371.45,437.0,,,True,San Juan 1425,La Anonima,General Roca,S.A. Importadora y Exportadora de la Patagonia,2,CRUZ DE MALTA,Yerba Mate Hojas mas Grandes Cruz de Malta 500 Gr,500.0 gr,2022-08-24,Cluster 2
1075605,1075605,sucursales,1,-35.98011,-62.72832,TRENQUE LAUQUEN - SAIEP,7790070507389,Supermercado,AR-B,15% de descuento con cualquier medio de pago - Vigencia: Desde el 24/08/2022 Hasta el 04/09/2022 - Stock: Hasta agotar stock.,371.45,437.0,,,True,Av. Garcia Salinas 1100,La Anonima,Trenque Lauquen,S.A. Importadora y Exportadora de la Patagonia,2,CRUZ DE MALTA,Yerba Mate Hojas mas Grandes Cruz de Malta 500 Gr,500.0 gr,2022-08-24,Cluster 2
1075606,1075606,sucursales,1,-45.58951,-69.06822,SARMIENTO,7790070507389,Supermercado,AR-U,15% de descuento con cualquier medio de pago - Vigencia: Desde el 24/08/2022 Hasta el 04/09/2022 - Stock: Hasta agotar stock.,395.25,465.0,,,True,España 412,La Anonima,Sarmiento,S.A. Importadora y Exportadora de la Patagonia,2,CRUZ DE MALTA,Yerba Mate Hojas mas Grandes Cruz de Malta 500 Gr,500.0 gr,2022-08-24,Cluster 2
1075607,1075607,sucursales,1,-36.6276,-64.28149,LURO,7790070507389,Supermercado,AR-L,15% de descuento con cualquier medio de pago - Vigencia: Desde el 24/08/2022 Hasta el 04/09/2022 - Stock: Hasta agotar stock.,371.45,437.0,,,True,Martin Fierro 1296,La Anonima,Santa Rosa,S.A. Importadora y Exportadora de la Patagonia,2,CRUZ DE MALTA,Yerba Mate Hojas mas Grandes Cruz de Malta 500 Gr,500.0 gr,2022-08-24,Cluster 2
1075608,1075608,sucursales,1,-39.95175,-71.06953,JUNIN DE LOS ANDES,7790070507389,Supermercado,AR-Q,15% de descuento con cualquier medio de pago - Vigencia: Desde el 24/08/2022 Hasta el 04/09/2022 - Stock: Hasta agotar stock.,383.35,451.0,,,True,Coronel Suarez 465,La Anonima,Junin de los Andes,S.A. Importadora y Exportadora de la Patagonia,2,CRUZ DE MALTA,Yerba Mate Hojas mas Grandes Cruz de Malta 500 Gr,500.0 gr,2022-08-24,Cluster 2
1075609,1075609,sucursales,1,-31.25349,-61.49254,QUIJOTE CENTRO,7790070507389,Hipermercado,AR-S,15% de descuento con cualquier medio de pago - Vigencia: Desde el 24/08/2022 Hasta el 04/09/2022 - Stock: Hasta agotar stock.,371.45,437.0,,,True,Rivadavia 53,La Anonima,Rafaela,S.A. Importadora y Exportadora de la Patagonia,2,CRUZ DE MALTA,Yerba Mate Hojas mas Grandes Cruz de Malta 500 Gr,500.0 gr,2022-08-24,Cluster 2
1075610,1075610,sucursales,1,-31.25189,-61.46342,QUIJOTE MAX2,7790070507389,Supermercado,AR-S,15% de descuento con cualquier medio de pago - Vigencia: Desde el 24/08/2022 Hasta el 04/09/2022 - Stock: Hasta agotar stock.,371.45,437.0,,,True,Aconcagua 555,La Anonima,Rafaela,S.A. Importadora y Exportadora de la Patagonia,2,CRUZ DE MALTA,Yerba Mate Hojas mas Grandes Cruz de Malta 500 Gr,500.0 gr,2022-08-24,Cluster 2
1075611,1075611,sucursales,1,-46.54639,-68.92791,LAS HERAS,7790070507389,Hipermercado,AR-Z,15% de descuento con cualquier medio de pago - Vigencia: Desde el 24/08/2022 Hasta el 04/09/2022 - Stock: Hasta agotar stock.,395.25,465.0,,,True,Pto. Santa Cruz 900,La Anonima,Las Heras,S.A. Importadora y Exportadora de la Patagonia,2,CRUZ DE MALTA,Yerba Mate Hojas mas Grandes Cruz de Malta 500 Gr,500.0 gr,2022-08-24,Cluster 2
1075612,1075612,sucursales,1,-50.34712,-72.26895,CALAFATE II,7790070507389,Supermercado,AR-Z,15% de descuento con cualquier medio de pago - Vigencia: Desde el 24/08/2022 Hasta el 04/09/2022 - Stock: Hasta agotar stock.,395.25,465.0,,,True,Calle 4000 166,La Anonima,El Calafate,S.A. Importadora y Exportadora de la Patagonia,2,CRUZ DE MALTA,Yerba Mate Hojas mas Grandes Cruz de Malta 500 Gr,500.0 gr,2022-08-24,Cluster 2
1075613,1075613,sucursales,1,-41.61137,-65.35849,SIERRA GRANDE,7790070507389,Supermercado,AR-R,15% de descuento con cualquier medio de pago - Vigencia: Desde el 24/08/2022 Hasta el 04/09/2022 - Stock: Hasta agotar stock.,383.35,451.0,,,True,J.J. Paso 100,La Anonima,Sierra Grande,S.A. Importadora y Exportadora de la Patagonia,2,CRUZ DE MALTA,Yerba Mate Hojas mas Grandes Cruz de Malta 500 Gr,500.0 gr,2022-08-24,Cluster 2
1075614,1075614,sucursales,1,-41.971,-71.53105,EL BOLSON 2,7790070507389,Supermercado,AR-R,15% de descuento con cualquier medio de pago - Vigencia: Desde el 24/08/2022 Hasta el 04/09/2022 - Stock: Hasta agotar stock.,395.25,465.0,,,True,Guemes 741,La Anonima,El Bolson,S.A. Importadora y Exportadora de la Patagonia,2,CRUZ DE MALTA,Yerba Mate Hojas mas Grandes Cruz de Malta 500 Gr,500.0 gr,2022-08-24,Cluster 2
1075615,1075615,sucursales,1,-54.83064,-68.35343,USHUAIA 5,7790070507389,Supermercado,AR-V,15% de descuento con cualquier medio de pago - Vigencia: Desde el 24/08/2022 Hasta el 04/09/2022 - Stock: Hasta agotar stock.,362.95,427.0,,,True,Los Ñires 2237,La Anonima,Ushuaia,S.A. Importadora y Exportadora de la Patagonia,2,CRUZ DE MALTA,Yerba Mate Hojas mas Grandes Cruz de Malta 500 Gr,500.0 gr,2022-08-24,Cluster 2
1075616,1075616,sucursales,1,-42.78087,-65.03707,PUERTO MADRYN 3,7790070507389,Supermercado,AR-U,15% de descuento con cualquier medio de pago - Vigencia: Desde el 24/08/2022 Hasta el 04/09/2022 - Stock: Hasta agotar stock.,383.35,451.0,,,True,Chubut 1400,La Anonima,Puerto Madryn,S.A. Importadora y Exportadora de la Patagonia,2,CRUZ DE MALTA,Yerba Mate Hojas mas Grandes Cruz de Malta 500 Gr,500.0 gr,2022-08-24,Cluster 2
1075617,1075617,sucursales,1,-37.3954,-68.92306,RINCON DE LOS SAUCES 2,7790070507389,Supermercado,AR-Q,15% de descuento con cualquier medio de pago - Vigencia: Desde el 24/08/2022 Hasta el 04/09/2022 - Stock: Hasta agotar stock.,395.25,465.0,,,True,Belgrano 1419,La Anonima,Rincon de los Sauces,S.A. Importadora y Exportadora de la Patagonia,2,CRUZ DE MALTA,Yerba Mate Hojas mas Grandes Cruz de Malta 500 Gr,500.0 gr,2022-08-24,Cluster 2
1075618,1075618,sucursales,1,-41.1015,-71.44459,BARILOCHE 5,7790070507389,Supermercado,AR-R,15% de descuento con cualquier medio de pago - Vigencia: Desde el 24/08/2022 Hasta el 04/09/2022 - Stock: Hasta agotar stock.,383.35,451.0,,,True,Av. Bustillo Km 13 12974,La Anonima,San Carlos de Bariloche,S.A. Importadora y Exportadora de la Patagonia,2,CRUZ DE MALTA,Yerba Mate Hojas mas Grandes Cruz de Malta 500 Gr,500.0 gr,2022-08-24,Cluster 2
1075619,1075619,sucursales,1,-45.92969,-67.57155,RADA TILLY,7790070507389,Supermercado,AR-U,15% de descuento con cualquier medio de pago - Vigencia: Desde el 24/08/2022 Hasta el 04/09/2022 - Stock: Hasta agotar stock.,383.35,451.0,,,True,Luque 1200,La Anonima,Rada Tilly,S.A. Importadora y Exportadora de la Patagonia,2,CRUZ DE MALTA,Yerba Mate Hojas mas Grandes Cruz de Malta 500 Gr,500.0 gr,2022-08-24,Cluster 2
1075620,1075620,sucursales,1,-38.94792,-68.22579,PLOTTIER,7790070507389,Supermercado,AR-Q,15% de descuento con cualquier medio de pago - Vigencia: Desde el 24/08/2022 Hasta el 04/09/2022 - Stock: Hasta agotar stock.,371.45,437.0,,,True,San Martin 507,La Anonima,Plottier,S.A. Importadora y Exportadora de la Patagonia,2,CRUZ DE MALTA,Yerba Mate Hojas mas Grandes Cruz de Malta 500 Gr,500.0 gr,2022-08-24,Cluster 2
1075621,1075621,sucursales,1,-51.63847,-69.21997,RIO GALLEGOS 6,7790070507389,Supermercado,AR-Z,15% de descuento con cualquier medio de pago - Vigencia: Desde el 24/08/2022 Hasta el 04/09/2022 - Stock: Hasta agotar stock.,383.35,451.0,,,True,Juan Jose Paso 1475,La Anonima,Rio Gallegos,S.A. Importadora y Exportadora de la Patagonia,2,CRUZ DE MALTA,Yerba Mate Hojas mas Grandes Cruz de Malta 500 Gr,500.0 gr,2022-08-24,Cluster 2
1075622,1075622,sucursales,1,-36.78374,-59.85291,AZUL,7790070507389,Supermercado,AR-B,15% de descuento con cualquier medio de pago - Vigencia: Desde el 24/08/2022 Hasta el 04/09/2022 - Stock: Hasta agotar stock.,371.45,437.0,,,True,Monseñor Caneva 560,La Anonima,Azul,S.A. Importadora y Exportadora de la Patagonia,2,CRUZ DE MALTA,Yerba Mate Hojas mas Grandes Cruz de Malta 500 Gr,500.0 gr,2022-08-24,Cluster 2
1075623,1075623,sucursales,1,-46.80191,-67.94655,PICO TRUNCADO 2,7790070507389,Supermercado,AR-Z,15% de descuento con cualquier medio de pago - Vigencia: Desde el 24/08/2022 Hasta el 04/09/2022 - Stock: Hasta agotar stock.,395.25,465.0,,,True,20 De Noviembre 451,La Anonima,Pico Truncado,S.A. Importadora y Exportadora de la Patagonia,2,CRUZ DE MALTA,Yerba Mate Hojas mas Grandes Cruz de Malta 500 Gr,500.0 gr,2022-08-24,Cluster 2
1075624,1075624,sucursales,1,-37.88435,-67.79886,CATRIEL 2,7790070507389,Supermercado,AR-R,15% de descuento con cualquier medio de pago - Vigencia: Desde el 24/08/2022 Hasta el 04/09/2022 - Stock: Hasta agotar stock.,395.25,465.0,,,True,Ing. Eduardo Garro 538,La Anonima,Catriel,S.A. Importadora y Exportadora de la Patagonia,2,CRUZ DE MALTA,Yerba Mate Hojas mas Grandes Cruz de Malta 500 Gr,500.0 gr,2022-08-24,Cluster 2
1075625,1075625,sucursales,1,-42.91426,-71.29899,ESQUEL 3,7790070507389,Supermercado,AR-U,15% de descuento con cualquier medio de pago - Vigencia: Desde el 24/08/2022 Hasta el 04/09/2022 - Stock: Hasta agotar stock.,395.25,465.0,,,True,Av. Holdich 424,La Anonima,Esquel,S.A. Importadora y Exportadora de la Patagonia,2,CRUZ DE MALTA,Yerba Mate Hojas mas Grandes Cruz de Malta 500 Gr,500.0 gr,2022-08-24,Cluster 2
1075626,1075626,sucursales,1,-49.30339,-67.7518,SAN JULIAN,7790070507389,Supermercado,AR-Z,15% de descuento con cualquier medio de pago - Vigencia: Desde el 24/08/2022 Hasta el 04/09/2022 - Stock: Hasta agotar stock.,395.25,465.0,,,True,Darwin 2371,La Anonima,San Julian,S.A. Importadora y Exportadora de la Patagonia,2,CRUZ DE MALTA,Yerba Mate Hojas mas Grandes Cruz de Malta 500 Gr,500.0 gr,2022-08-24,Cluster 2
1075628,1075628,sucursales,1,-51.62891,-69.23756,RIO GALLEGOS 7,7790070507389,Supermercado,AR-Z,15% de descuento con cualquier medio de pago - Vigencia: Desde el 24/08/2022 Hasta el 04/09/2022 - Stock: Hasta agotar stock.,383.35,451.0,,,True,Corrientes 1308,La Anonima,Rio Gallegos,S.A. Importadora y Exportadora de la Patagonia,2,CRUZ DE MALTA,Yerba Mate Hojas mas Grandes Cruz de Malta 500 Gr,500.0 gr,2022-08-24,Cluster 2
1075629,1075629,sucursales,1,-51.61964,-69.22224,RIO GALLEGOS 9,7790070507389,Supermercado,AR-Z,15% de descuento con cualquier medio de pago - Vigencia: Desde el 24/08/2022 Hasta el 04/09/2022 - Stock: Hasta agotar stock.,383.35,451.0,,,True,Estrada 108,La Anonima,Rio Gallegos,S.A. Importadora y Exportadora de la Patagonia,2,CRUZ DE MALTA,Yerba Mate Hojas mas Grandes Cruz de Malta 500 Gr,500.0 gr,2022-08-24,Cluster 2
1075630,1075630,sucursales,1,-51.57563,-72.21356,28 DE NOVIEMBRE 2,7790070507389,Supermercado,AR-Z,15% de descuento con cualquier medio de pago - Vigencia: Desde el 24/08/2022 Hasta el 04/09/2022 - Stock: Hasta agotar stock.,395.25,465.0,,,True,Ruta Nacional 40 Km 389,La Anonima,28 de Noviembre,S.A. Importadora y Exportadora de la Patagonia,2,CRUZ DE MALTA,Yerba Mate Hojas mas Grandes Cruz de Malta 500 Gr,500.0 gr,2022-08-24,Cluster 2
1075631,1075631,sucursales,1,-40.14351,-71.30282,SAN MARTIN DE LOS ANDES II,7790070507389,Supermercado,AR-Q,15% de descuento con cualquier medio de pago - Vigencia: Desde el 24/08/2022 Hasta el 04/09/2022 - Stock: Hasta agotar stock.,383.35,451.0,,,True,Ruta 40 Km 2216.6 ,La Anonima,San Martin de los Andes,S.A. Importadora y Exportadora de la Patagonia,2,CRUZ DE MALTA,Yerba Mate Hojas mas Grandes Cruz de Malta 500 Gr,500.0 gr,2022-08-24,Cluster 2
1075632,1075632,sucursales,1,-38.82733,-68.14441,CENTENARIO,7790070507389,Supermercado,AR-Q,15% de descuento con cualquier medio de pago - Vigencia: Desde el 24/08/2022 Hasta el 04/09/2022 - Stock: Hasta agotar stock.,371.45,437.0,,,True,Avenida Del Libertador 75,La Anonima,Centenario,S.A. Importadora y Exportadora de la Patagonia,2,CRUZ DE MALTA,Yerba Mate Hojas mas Grandes Cruz de Malta 500 Gr,500.0 gr,2022-08-24,Cluster 2
1075633,1075633,sucursales,1,-46.58337,-70.93723,PERITO MORENO,7790070507389,Supermercado,AR-Z,15% de descuento con cualquier medio de pago - Vigencia: Desde el 24/08/2022 Hasta el 04/09/2022 - Stock: Hasta agotar stock.,395.25,465.0,,,True,Hipolito Irigoyen 2371,La Anonima,Perito Moreno,S.A. Importadora y Exportadora de la Patagonia,2,CRUZ DE MALTA,Yerba Mate Hojas mas Grandes Cruz de Malta 500 Gr,500.0 gr,2022-08-24,Cluster 2
1075634,1075634,sucursales,1,-39.29873,-65.64802,CHOELE CHOEL,7790070507389,Supermercado,AR-R,15% de descuento con cualquier medio de pago - Vigencia: Desde el 24/08/2022 Hasta el 04/09/2022 - Stock: Hasta agotar stock.,371.45,437.0,,,True,Hector Gil 64,La Anonima,Choele Choel,S.A. Importadora y Exportadora de la Patagonia,2,CRUZ DE MALTA,Yerba Mate Hojas mas Grandes Cruz de Malta 500 Gr,500.0 gr,2022-08-24,Cluster 2
1075635,1075635,sucursales,1,-30.72523,-62.00968,MORTEROS,7790070507389,Supermercado,AR-X,15% de descuento con cualquier medio de pago - Vigencia: Desde el 24/08/2022 Hasta el 04/09/2022 - Stock: Hasta agotar stock.,371.45,437.0,,,True,Bv 9 De Julio 2339,La Anonima,Morteros,S.A. Importadora y Exportadora de la Patagonia,2,CRUZ DE MALTA,Yerba Mate Hojas mas Grandes Cruz de Malta 500 Gr,500.0 gr,2022-08-24,Cluster 2
1075636,1075636,sucursales,2,-38.94616,-68.05817,TOPSY 01,7790070507389,Supermercado,AR-Q,15% de descuento con cualquier medio de pago - Vigencia: Desde el 24/08/2022 Hasta el 04/09/2022 - Stock: Hasta agotar stock.,371.45,437.0,,,True,Av. San Juan 51,Topsy,Neuquen,S.A. Importadora y Exportadora de la Patagonia,2,CRUZ DE MALTA,Yerba Mate Hojas mas Grandes Cruz de Malta 500 Gr,500.0 gr,2022-08-24,Cluster 2
1075637,1075637,sucursales,2,-38.9571,-68.22889,TOPSY 10,7790070507389,Supermercado,AR-Q,15% de descuento con cualquier medio de pago - Vigencia: Desde el 24/08/2022 Hasta el 04/09/2022 - Stock: Hasta agotar stock.,371.45,437.0,,,True,Buenos Aires 179,Topsy,Plottier,S.A. Importadora y Exportadora de la Patagonia,2,CRUZ DE MALTA,Yerba Mate Hojas mas Grandes Cruz de Malta 500 Gr,500.0 gr,2022-08-24,Cluster 2
1075638,1075638,sucursales,2,-38.95066,-68.08955,TOPSY 17,7790070507389,Supermercado,AR-Q,15% de descuento con cualquier medio de pago - Vigencia: Desde el 24/08/2022 Hasta el 04/09/2022 - Stock: Hasta agotar stock.,371.45,437.0,,,True,Belgrano 2186,Topsy,Neuquen,S.A. Importadora y Exportadora de la Patagonia,2,CRUZ DE MALTA,Yerba Mate Hojas mas Grandes Cruz de Malta 500 Gr,500.0 gr,2022-08-24,Cluster 2
1075639,1075639,sucursales,2,-38.82925,-68.06397,TOPSY 19,7790070507389,Supermercado,AR-R,15% de descuento con cualquier medio de pago - Vigencia: Desde el 24/08/2022 Hasta el 04/09/2022 - Stock: Hasta agotar stock.,371.45,437.0,,,True,General Roca 224,Topsy,Cinco Saltos,S.A. Importadora y Exportadora de la Patagonia,2,CRUZ DE MALTA,Yerba Mate Hojas mas Grandes Cruz de Malta 500 Gr,500.0 gr,2022-08-24,Cluster 2
1075640,1075640,sucursales,1,-41.13139,-71.36124,BARILOCHE 3,7790387015607,Supermercado,AR-R,20% de descuento con cualquier medio de pago - Vigencia: Desde el 24/08/2022 Hasta el 04/09/2022 - Stock: Hasta agotar stock.,548.0,685.0,,,True,Av. De Los Pioneros 4400,La Anonima,San Carlos de Bariloche,S.A. Importadora y Exportadora de la Patagonia,2,LA MERCED,Yerba Mate Campo Origen Controlado La Merced 500 Gr,500.0 gr,2022-08-24,Cluster 3
1075641,1075641,sucursales,1,-38.95934,-68.05082,NEUQUEN,7790387015607,Supermercado,AR-Q,20% de descuento con cualquier medio de pago - Vigencia: Desde el 24/08/2022 Hasta el 04/09/2022 - Stock: Hasta agotar stock.,527.2,659.0,,,True,Bahia Blanca 371,La Anonima,Neuquen,S.A. Importadora y Exportadora de la Patagonia,2,LA MERCED,Yerba Mate Campo Origen Controlado La Merced 500 Gr,500.0 gr,2022-08-24,Cluster 3
1075642,1075642,sucursales,1,-38.93369,-68.00103,CIPOLLETTI,7790387015607,Supermercado,AR-R,20% de descuento con cualquier medio de pago - Vigencia: Desde el 24/08/2022 Hasta el 04/09/2022 - Stock: Hasta agotar stock.,527.2,659.0,,,True,Mariano Moreno 75,La Anonima,Cipolletti,S.A. Importadora y Exportadora de la Patagonia,2,LA MERCED,Yerba Mate Campo Origen Controlado La Merced 500 Gr,500.0 gr,2022-08-24,Cluster 3
1075643,1075643,sucursales,1,-41.13545,-71.30874,BARILOCHE,7790387015607,Supermercado,AR-R,20% de descuento con cualquier medio de pago - Vigencia: Desde el 24/08/2022 Hasta el 04/09/2022 - Stock: Hasta agotar stock.,548.0,685.0,,,True,Gdor.Quaglia 311,La Anonima,San Carlos de Bariloche,S.A. Importadora y Exportadora de la Patagonia,2,LA MERCED,Yerba Mate Campo Origen Controlado La Merced 500 Gr,500.0 gr,2022-08-24,Cluster 3
1075644,1075644,sucursales,1,-41.14,-71.30168,BARILOCHE 2,7790387015607,Hipermercado,AR-R,20% de descuento con cualquier medio de pago - Vigencia: Desde el 24/08/2022 Hasta el 04/09/2022 - Stock: Hasta agotar stock.,548.0,685.0,,,True,Albarracin 601,La Anonima,San Carlos de Bariloche,S.A. Importadora y Exportadora de la Patagonia,2,LA MERCED,Yerba Mate Campo Origen Controlado La Merced 500 Gr,500.0 gr,2022-08-24,Cluster 3
1075645,1075645,sucursales,1,-39.03638,-67.57766,GENERAL ROCA,7790387015607,Supermercado,AR-R,20% de descuento con cualquier medio de pago - Vigencia: Desde el 24/08/2022 Hasta el 04/09/2022 - Stock: Hasta agotar stock.,527.2,659.0,,,True,Av. Roca 790,La Anonima,General Roca,S.A. Importadora y Exportadora de la Patagonia,2,LA MERCED,Yerba Mate Campo Origen Controlado La Merced 500 Gr,500.0 gr,2022-08-24,Cluster 3
1075647,1075647,sucursales,1,-40.81547,-62.9884,VIEDMA,7790387015607,Supermercado,AR-R,20% de descuento con cualquier medio de pago - Vigencia: Desde el 24/08/2022 Hasta el 04/09/2022 - Stock: Hasta agotar stock.,527.2,659.0,,,True,Rivadavia 450,La Anonima,Viedma,S.A. Importadora y Exportadora de la Patagonia,2,LA MERCED,Yerba Mate Campo Origen Controlado La Merced 500 Gr,500.0 gr,2022-08-24,Cluster 3
1075648,1075648,sucursales,1,-43.24702,-65.31071,TRELEW,7790387015607,Supermercado,AR-U,20% de descuento con cualquier medio de pago - Vigencia: Desde el 24/08/2022 Hasta el 04/09/2022 - Stock: Hasta agotar stock.,548.0,685.0,,,True,Belgrano 292,La Anonima,Trelew,S.A. Importadora y Exportadora de la Patagonia,2,LA MERCED,Yerba Mate Campo Origen Controlado La Merced 500 Gr,500.0 gr,2022-08-24,Cluster 3
1075649,1075649,sucursales,1,-43.30254,-65.1044,RAWSON,7790387015607,Supermercado,AR-U,20% de descuento con cualquier medio de pago - Vigencia: Desde el 24/08/2022 Hasta el 04/09/2022 - Stock: Hasta agotar stock.,548.0,685.0,,,True,Luis Costa 172,La Anonima,Rawson,S.A. Importadora y Exportadora de la Patagonia,2,LA MERCED,Yerba Mate Campo Origen Controlado La Merced 500 Gr,500.0 gr,2022-08-24,Cluster 3
1075650,1075650,sucursales,1,-42.76422,-65.03623,PUERTO MADRYN,7790387015607,Supermercado,AR-U,20% de descuento con cualquier medio de pago - Vigencia: Desde el 24/08/2022 Hasta el 04/09/2022 - Stock: Hasta agotar stock.,548.0,685.0,,,True,H.Yrigoyen 76,La Anonima,Puerto Madryn,S.A. Importadora y Exportadora de la Patagonia,2,LA MERCED,Yerba Mate Campo Origen Controlado La Merced 500 Gr,500.0 gr,2022-08-24,Cluster 3
1075651,1075651,sucursales,1,-42.9143,-71.32276,ESQUEL,7790387015607,Supermercado,AR-U,20% de descuento con cualquier medio de pago - Vigencia: Desde el 24/08/2022 Hasta el 04/09/2022 - Stock: Hasta agotar stock.,567.2,709.0,,,True,Roca 710,La Anonima,Esquel,S.A. Importadora y Exportadora de la Patagonia,2,LA MERCED,Yerba Mate Campo Origen Controlado La Merced 500 Gr,500.0 gr,2022-08-24,Cluster 3
1075652,1075652,sucursales,1,-43.26212,-65.29349,TRELEW FONTANA,7790387015607,Supermercado,AR-U,20% de descuento con cualquier medio de pago - Vigencia: Desde el 24/08/2022 Hasta el 04/09/2022 - Stock: Hasta agotar stock.,548.0,685.0,,,True,H.Yrigoyen 1650,La Anonima,Trelew,S.A. Importadora y Exportadora de la Patagonia,2,LA MERCED,Yerba Mate Campo Origen Controlado La Merced 500 Gr,500.0 gr,2022-08-24,Cluster 3
1075653,1075653,sucursales,1,-42.91166,-71.31968,AUTO SERVICE ESQUEL,7790387015607,Supermercado,AR-U,20% de descuento con cualquier medio de pago - Vigencia: Desde el 24/08/2022 Hasta el 04/09/2022 - Stock: Hasta agotar stock.,567.2,709.0,,,True,Av. Fontana 705,La Anonima,Esquel,S.A. Importadora y Exportadora de la Patagonia,2,LA MERCED,Yerba Mate Campo Origen Controlado La Merced 500 Gr,500.0 gr,2022-08-24,Cluster 3
1075654,1075654,sucursales,1,-41.96276,-71.53524,EL BOLSON,7790387015607,Supermercado,AR-R,20% de descuento con cualquier medio de pago - Vigencia: Desde el 24/08/2022 Hasta el 04/09/2022 - Stock: Hasta agotar stock.,567.2,709.0,,,True,San Martin 2934,La Anonima,El Bolson,S.A. Importadora y Exportadora de la Patagonia,2,LA MERCED,Yerba Mate Campo Origen Controlado La Merced 500 Gr,500.0 gr,2022-08-24,Cluster 3
1075655,1075655,sucursales,1,-43.2511,-65.32356,AUTOSERV.2 TRELEW,7790387015607,Autoservicio,AR-U,20% de descuento con cualquier medio de pago - Vigencia: Desde el 24/08/2022 Hasta el 04/09/2022 - Stock: Hasta agotar stock.,548.0,685.0,,,True,Av. La Plata 1027,La Anonima,Trelew,S.A. Importadora y Exportadora de la Patagonia,2,LA MERCED,Yerba Mate Campo Origen Controlado La Merced 500 Gr,500.0 gr,2022-08-24,Cluster 3
1075656,1075656,sucursales,1,-45.8687,-67.50227,COMODORO RIVADAVIA,7790387015607,Hipermercado,AR-U,20% de descuento con cualquier medio de pago - Vigencia: Desde el 24/08/2022 Hasta el 04/09/2022 - Stock: Hasta agotar stock.,548.0,685.0,,,True,13 De Diciembre 150,La Anonima,Comodoro Rivadavia,S.A. Importadora y Exportadora de la Patagonia,2,LA MERCED,Yerba Mate Campo Origen Controlado La Merced 500 Gr,500.0 gr,2022-08-24,Cluster 3
1075657,1075657,sucursales,1,-45.86105,-67.47518,FILIAL SAN MARTIN,7790387015607,Hipermercado,AR-U,20% de descuento con cualquier medio de pago - Vigencia: Desde el 24/08/2022 Hasta el 04/09/2022 - Stock: Hasta agotar stock.,548.0,685.0,,,True,San Martin 100,La Anonima,Comodoro Rivadavia,S.A. Importadora y Exportadora de la Patagonia,2,LA MERCED,Yerba Mate Campo Origen Controlado La Merced 500 Gr,500.0 gr,2022-08-24,Cluster 3
1075658,1075658,sucursales,1,-45.83675,-67.47832,GRAL.MOSCONI KM.3,7790387015607,Supermercado,AR-U,20% de descuento con cualquier medio de pago - Vigencia: Desde el 24/08/2022 Hasta el 04/09/2022 - Stock: Hasta agotar stock.,548.0,685.0,,,True,Fco.De Viedma 23,La Anonima,Comodoro Rivadavia,S.A. Importadora y Exportadora de la Patagonia,2,LA MERCED,Yerba Mate Campo Origen Controlado La Merced 500 Gr,500.0 gr,2022-08-24,Cluster 3
1075659,1075659,sucursales,1,-45.86043,-67.49884,A.SERV.N 1 COM.RIVADAVIA,7790387015607,Supermercado,AR-U,20% de descuento con cualquier medio de pago - Vigencia: Desde el 24/08/2022 Hasta el 04/09/2022 - Stock: Hasta agotar stock.,548.0,685.0,,,True,Alem 962,La Anonima,Comodoro Rivadavia,S.A. Importadora y Exportadora de la Patagonia,2,LA MERCED,Yerba Mate Campo Origen Controlado La Merced 500 Gr,500.0 gr,2022-08-24,Cluster 3
1075660,1075660,sucursales,1,-45.87519,-67.51911,A.SERV.N 2 COM.RIVADAVIA,7790387015607,Supermercado,AR-U,20% de descuento con cualquier medio de pago - Vigencia: Desde el 24/08/2022 Hasta el 04/09/2022 - Stock: Hasta agotar stock.,548.0,685.0,,,True,Atahualpa Yupanqui 400,La Anonima,Comodoro Rivadavia,S.A. Importadora y Exportadora de la Patagonia,2,LA MERCED,Yerba Mate Campo Origen Controlado La Merced 500 Gr,500.0 gr,2022-08-24,Cluster 3
1075661,1075661,sucursales,1,-46.44789,-67.52006,CALETA OLIVIA,7790387015607,Hipermercado,AR-Z,20% de descuento con cualquier medio de pago - Vigencia: Desde el 24/08/2022 Hasta el 04/09/2022 - Stock: Hasta agotar stock.,548.0,685.0,,,True,Av. Del Trabajo 469,La Anonima,Caleta Olivia,S.A. Importadora y Exportadora de la Patagonia,2,LA MERCED,Yerba Mate Campo Origen Controlado La Merced 500 Gr,500.0 gr,2022-08-24,Cluster 3
1075662,1075662,sucursales,1,-46.44466,-67.52854,CALETA OLIVIA 2,7790387015607,Supermercado,AR-Z,20% de descuento con cualquier medio de pago - Vigencia: Desde el 24/08/2022 Hasta el 04/09/2022 - Stock: Hasta agotar stock.,548.0,685.0,,,True,Belgrano 515,La Anonima,Caleta Olivia,S.A. Importadora y Exportadora de la Patagonia,2,LA MERCED,Yerba Mate Campo Origen Controlado La Merced 500 Gr,500.0 gr,2022-08-24,Cluster 3
1075663,1075663,sucursales,1,-51.62095,-69.21631,RIO GALLEGOS,7790387015607,Supermercado,AR-Z,20% de descuento con cualquier medio de pago - Vigencia: Desde el 24/08/2022 Hasta el 04/09/2022 - Stock: Hasta agotar stock.,548.0,685.0,,,True,Av. Roca 973,La Anonima,Rio Gallegos,S.A. Importadora y Exportadora de la Patagonia,2,LA MERCED,Yerba Mate Campo Origen Controlado La Merced 500 Gr,500.0 gr,2022-08-24,Cluster 3
1075664,1075664,sucursales,1,-53.7863,-67.70084,RIO GRANDE,7790387015607,Supermercado,AR-V,20% de descuento con cualquier medio de pago - Vigencia: Desde el 24/08/2022 Hasta el 04/09/2022 - Stock: Hasta agotar stock.,524.0,655.0,,,True,San Martin 553,La Anonima,Rio Grande,S.A. Importadora y Exportadora de la Patagonia,2,LA MERCED,Yerba Mate Campo Origen Controlado La Merced 500 Gr,500.0 gr,2022-08-24,Cluster 3
1075665,1075665,sucursales,1,-53.76949,-67.71694,AUTOSERVICIO RIO GRANDE,7790387015607,Supermercado,AR-V,20% de descuento con cualquier medio de pago - Vigencia: Desde el 24/08/2022 Hasta el 04/09/2022 - Stock: Hasta agotar stock.,524.0,655.0,,,True,Viedma 841,La Anonima,Rio Grande,S.A. Importadora y Exportadora de la Patagonia,2,LA MERCED,Yerba Mate Campo Origen Controlado La Merced 500 Gr,500.0 gr,2022-08-24,Cluster 3
1075666,1075666,sucursales,1,-53.79195,-67.72114,AUTOSERVICE 2 RIO GRANDE,7790387015607,Supermercado,AR-V,20% de descuento con cualquier medio de pago - Vigencia: Desde el 24/08/2022 Hasta el 04/09/2022 - Stock: Hasta agotar stock.,524.0,655.0,,,True,25 De Mayo 1926,La Anonima,Rio Grande,S.A. Importadora y Exportadora de la Patagonia,2,LA MERCED,Yerba Mate Campo Origen Controlado La Merced 500 Gr,500.0 gr,2022-08-24,Cluster 3
1075667,1075667,sucursales,1,-54.79809,-68.27878,USHUAIA,7790387015607,Hipermercado,AR-V,20% de descuento con cualquier medio de pago - Vigencia: Desde el 24/08/2022 Hasta el 04/09/2022 - Stock: Hasta agotar stock.,524.0,655.0,,,True,Perito Moreno 1550,La Anonima,Ushuaia,S.A. Importadora y Exportadora de la Patagonia,2,LA MERCED,Yerba Mate Campo Origen Controlado La Merced 500 Gr,500.0 gr,2022-08-24,Cluster 3
1075668,1075668,sucursales,1,-39.02747,-67.56573,AUTOSERVICIO ROCA,7790387015607,Autoservicio,AR-R,20% de descuento con cualquier medio de pago - Vigencia: Desde el 24/08/2022 Hasta el 04/09/2022 - Stock: Hasta agotar stock.,527.2,659.0,,,True,San Martin 96,La Anonima,General Roca,S.A. Importadora y Exportadora de la Patagonia,2,LA MERCED,Yerba Mate Campo Origen Controlado La Merced 500 Gr,500.0 gr,2022-08-24,Cluster 3
1075669,1075669,sucursales,1,-51.64137,-69.2288,AUTOSERVICIO R.GALLEGOS,7790387015607,Supermercado,AR-Z,20% de descuento con cualquier medio de pago - Vigencia: Desde el 24/08/2022 Hasta el 04/09/2022 - Stock: Hasta agotar stock.,548.0,685.0,,,True,Santa Cruz 220,La Anonima,Rio Gallegos,S.A. Importadora y Exportadora de la Patagonia,2,LA MERCED,Yerba Mate Campo Origen Controlado La Merced 500 Gr,500.0 gr,2022-08-24,Cluster 3
1075670,1075670,sucursales,1,-43.26799,-65.29839,AUTOSERV.3 TRELEW,7790387015607,Supermercado,AR-U,20% de descuento con cualquier medio de pago - Vigencia: Desde el 24/08/2022 Hasta el 04/09/2022 - Stock: Hasta agotar stock.,548.0,685.0,,,True,Pellegrini 1694,La Anonima,Trelew,S.A. Importadora y Exportadora de la Patagonia,2,LA MERCED,Yerba Mate Campo Origen Controlado La Merced 500 Gr,500.0 gr,2022-08-24,Cluster 3
1075671,1075671,sucursales,1,-42.76723,-65.04299,AUTOSERVICIO PTO.MADRYN,7790387015607,Supermercado,AR-U,20% de descuento con cualquier medio de pago - Vigencia: Desde el 24/08/2022 Hasta el 04/09/2022 - Stock: Hasta agotar stock.,548.0,685.0,,,True,Italia 500,La Anonima,Puerto Madryn,S.A. Importadora y Exportadora de la Patagonia,2,LA MERCED,Yerba Mate Campo Origen Controlado La Merced 500 Gr,500.0 gr,2022-08-24,Cluster 3
1075672,1075672,sucursales,1,-40.73091,-64.93972,SAN ANTONIO OESTE,7790387015607,Supermercado,AR-R,20% de descuento con cualquier medio de pago - Vigencia: Desde el 24/08/2022 Hasta el 04/09/2022 - Stock: Hasta agotar stock.,548.0,685.0,,,True,Belgrano 651,La Anonima,San Antonio Oeste,S.A. Importadora y Exportadora de la Patagonia,2,LA MERCED,Yerba Mate Campo Origen Controlado La Merced 500 Gr,500.0 gr,2022-08-24,Cluster 3
1075673,1075673,sucursales,1,-40.81634,-63.00303,VIEDMA 2,7790387015607,Supermercado,AR-R,20% de descuento con cualquier medio de pago - Vigencia: Desde el 24/08/2022 Hasta el 04/09/2022 - Stock: Hasta agotar stock.,527.2,659.0,,,True,Alvaro Barros 1408,La Anonima,Viedma,S.A. Importadora y Exportadora de la Patagonia,2,LA MERCED,Yerba Mate Campo Origen Controlado La Merced 500 Gr,500.0 gr,2022-08-24,Cluster 3
1075674,1075674,sucursales,1,-39.09549,-67.09225,VILLA REGINA,7790387015607,Supermercado,AR-R,20% de descuento con cualquier medio de pago - Vigencia: Desde el 24/08/2022 Hasta el 04/09/2022 - Stock: Hasta agotar stock.,527.2,659.0,,,True,Av. Cipolletti 502,La Anonima,Villa Regina,S.A. Importadora y Exportadora de la Patagonia,2,LA MERCED,Yerba Mate Campo Origen Controlado La Merced 500 Gr,500.0 gr,2022-08-24,Cluster 3
1075675,1075675,sucursales,1,-38.89284,-70.06664,ZAPALA,7790387015607,Supermercado,AR-Q,20% de descuento con cualquier medio de pago - Vigencia: Desde el 24/08/2022 Hasta el 04/09/2022 - Stock: Hasta agotar stock.,548.0,685.0,,,True,9 De Julio 574,La Anonima,Zapala,S.A. Importadora y Exportadora de la Patagonia,2,LA MERCED,Yerba Mate Campo Origen Controlado La Merced 500 Gr,500.0 gr,2022-08-24,Cluster 3
1075676,1075676,sucursales,1,-38.93982,-67.9953,CIPOLLETTI 2,7790387015607,Supermercado,AR-R,20% de descuento con cualquier medio de pago - Vigencia: Desde el 24/08/2022 Hasta el 04/09/2022 - Stock: Hasta agotar stock.,527.2,659.0,,,True,Roca 623,La Anonima,Cipolletti,S.A. Importadora y Exportadora de la Patagonia,2,LA MERCED,Yerba Mate Campo Origen Controlado La Merced 500 Gr,500.0 gr,2022-08-24,Cluster 3
1075677,1075677,sucursales,1,-38.98055,-67.83011,ALLEN,7790387015607,Supermercado,AR-R,20% de descuento con cualquier medio de pago - Vigencia: Desde el 24/08/2022 Hasta el 04/09/2022 - Stock: Hasta agotar stock.,527.2,659.0,,,True,Juan B.Justo 301,La Anonima,Allen,S.A. Importadora y Exportadora de la Patagonia,2,LA MERCED,Yerba Mate Campo Origen Controlado La Merced 500 Gr,500.0 gr,2022-08-24,Cluster 3
1075678,1075678,sucursales,1,-34.64366,-60.4709,CHACABUCO,7790387015607,Supermercado,AR-B,20% de descuento con cualquier medio de pago - Vigencia: Desde el 24/08/2022 Hasta el 04/09/2022 - Stock: Hasta agotar stock.,527.2,659.0,,,True,Sarmiento 36,La Anonima,Chacabuco,S.A. Importadora y Exportadora de la Patagonia,2,LA MERCED,Yerba Mate Campo Origen Controlado La Merced 500 Gr,500.0 gr,2022-08-24,Cluster 3
1075679,1075679,sucursales,1,-54.81791,-68.33506,AUTOSERVICIO USHUAIA,7790387015607,Supermercado,AR-V,20% de descuento con cualquier medio de pago - Vigencia: Desde el 24/08/2022 Hasta el 04/09/2022 - Stock: Hasta agotar stock.,524.0,655.0,,,True,C.Rubino De Rio 188,La Anonima,Ushuaia,S.A. Importadora y Exportadora de la Patagonia,2,LA MERCED,Yerba Mate Campo Origen Controlado La Merced 500 Gr,500.0 gr,2022-08-24,Cluster 3
1075680,1075680,sucursales,1,-34.8954,-60.0175,CHIVILCOY,7790387015607,Supermercado,AR-B,20% de descuento con cualquier medio de pago - Vigencia: Desde el 24/08/2022 Hasta el 04/09/2022 - Stock: Hasta agotar stock.,527.2,659.0,,,True,Av. Federico Soarez 52,La Anonima,Chivilcoy,S.A. Importadora y Exportadora de la Patagonia,2,LA MERCED,Yerba Mate Campo Origen Controlado La Merced 500 Gr,500.0 gr,2022-08-24,Cluster 3
1075681,1075681,sucursales,1,-35.11983,-60.48045,BRAGADO,7790387015607,Supermercado,AR-B,20% de descuento con cualquier medio de pago - Vigencia: Desde el 24/08/2022 Hasta el 04/09/2022 - Stock: Hasta agotar stock.,527.2,659.0,,,True,Rivadavia 2070,La Anonima,Bragado,S.A. Importadora y Exportadora de la Patagonia,2,LA MERCED,Yerba Mate Campo Origen Controlado La Merced 500 Gr,500.0 gr,2022-08-24,Cluster 3
1075682,1075682,sucursales,1,-33.74657,-61.96796,VENADO TUERTO,7790387015607,Supermercado,AR-S,20% de descuento con cualquier medio de pago - Vigencia: Desde el 24/08/2022 Hasta el 04/09/2022 - Stock: Hasta agotar stock.,527.2,659.0,,,True,Av.Casey 799,La Anonima,Venado Tuerto,S.A. Importadora y Exportadora de la Patagonia,2,LA MERCED,Yerba Mate Campo Origen Controlado La Merced 500 Gr,500.0 gr,2022-08-24,Cluster 3
1075684,1075684,sucursales,1,-38.947,-68.07342,HIPERMERCADO NEUQUEN,7790387015607,Supermercado,AR-Q,20% de descuento con cualquier medio de pago - Vigencia: Desde el 24/08/2022 Hasta el 04/09/2022 - Stock: Hasta agotar stock.,527.2,659.0,,,True,Antartida Argentina 1111,La Anonima,Neuquen,S.A. Importadora y Exportadora de la Patagonia,2,LA MERCED,Yerba Mate Campo Origen Controlado La Merced 500 Gr,500.0 gr,2022-08-24,Cluster 3
1075685,1075685,sucursales,1,-40.79919,-62.97805,C. DE PATAGONES,7790387015607,Supermercado,AR-B,20% de descuento con cualquier medio de pago - Vigencia: Desde el 24/08/2022 Hasta el 04/09/2022 - Stock: Hasta agotar stock.,527.2,659.0,,,True,San Lorenzo 59,La Anonima,Carmen de Patagones,S.A. Importadora y Exportadora de la Patagonia,2,LA MERCED,Yerba Mate Campo Origen Controlado La Merced 500 Gr,500.0 gr,2022-08-24,Cluster 3
1075686,1075686,sucursales,1,-51.63219,-69.19812,AUTOSERVICIO 2 R.GALLEGOS,7790387015607,Hipermercado,AR-Z,20% de descuento con cualquier medio de pago - Vigencia: Desde el 24/08/2022 Hasta el 04/09/2022 - Stock: Hasta agotar stock.,548.0,685.0,,,True,Maipu 1332,La Anonima,Rio Gallegos,S.A. Importadora y Exportadora de la Patagonia,2,LA MERCED,Yerba Mate Campo Origen Controlado La Merced 500 Gr,500.0 gr,2022-08-24,Cluster 3
1075687,1075687,sucursales,1,-53.77885,-67.71814,RIO GRANDE 4,7790387015607,Hipermercado,AR-V,20% de descuento con cualquier medio de pago - Vigencia: Desde el 24/08/2022 Hasta el 04/09/2022 - Stock: Hasta agotar stock.,524.0,655.0,,,True,Av.San Martin 1605,La Anonima,Rio Grande,S.A. Importadora y Exportadora de la Patagonia,2,LA MERCED,Yerba Mate Campo Origen Controlado La Merced 500 Gr,500.0 gr,2022-08-24,Cluster 3
1075688,1075688,sucursales,1,-54.80383,-68.30226,USHUAIA 3,7790387015607,Supermercado,AR-V,20% de descuento con cualquier medio de pago - Vigencia: Desde el 24/08/2022 Hasta el 04/09/2022 - Stock: Hasta agotar stock.,524.0,655.0,,,True,Gobernador Paz 190,La Anonima,Ushuaia,S.A. Importadora y Exportadora de la Patagonia,2,LA MERCED,Yerba Mate Campo Origen Controlado La Merced 500 Gr,500.0 gr,2022-08-24,Cluster 3
1075689,1075689,sucursales,1,-38.9304,-69.21067,PLAZA HUINCUL,7790387015607,Supermercado,AR-Q,20% de descuento con cualquier medio de pago - Vigencia: Desde el 24/08/2022 Hasta el 04/09/2022 - Stock: Hasta agotar stock.,548.0,685.0,,,True,Copahue 20,La Anonima,Plaza Huincul,S.A. Importadora y Exportadora de la Patagonia,2,LA MERCED,Yerba Mate Campo Origen Controlado La Merced 500 Gr,500.0 gr,2022-08-24,Cluster 3
1075690,1075690,sucursales,1,-41.13798,-71.29846,BARILOCHE 4,7790387015607,Supermercado,AR-R,20% de descuento con cualquier medio de pago - Vigencia: Desde el 24/08/2022 Hasta el 04/09/2022 - Stock: Hasta agotar stock.,548.0,685.0,,,True,Gallardo 801,La Anonima,San Carlos de Bariloche,S.A. Importadora y Exportadora de la Patagonia,2,LA MERCED,Yerba Mate Campo Origen Controlado La Merced 500 Gr,500.0 gr,2022-08-24,Cluster 3
1075691,1075691,sucursales,1,-34.60717,-60.96252,JUNIN,7790387015607,Supermercado,AR-B,20% de descuento con cualquier medio de pago - Vigencia: Desde el 24/08/2022 Hasta el 04/09/2022 - Stock: Hasta agotar stock.,527.2,659.0,,,True,Ruta 7 Km 260,La Anonima,Junin,S.A. Importadora y Exportadora de la Patagonia,2,LA MERCED,Yerba Mate Campo Origen Controlado La Merced 500 Gr,500.0 gr,2022-08-24,Cluster 3
1075692,1075692,sucursales,1,-33.89338,-61.09838,COLON,7790387015607,Supermercado,AR-B,20% de descuento con cualquier medio de pago - Vigencia: Desde el 24/08/2022 Hasta el 04/09/2022 - Stock: Hasta agotar stock.,527.2,659.0,,,True,Calle 20 718,La Anonima,Colon,S.A. Importadora y Exportadora de la Patagonia,2,LA MERCED,Yerba Mate Campo Origen Controlado La Merced 500 Gr,500.0 gr,2022-08-24,Cluster 3
1075693,1075693,sucursales,1,-36.6323,-64.29628,SANTA ROSA,7790387015607,Hipermercado,AR-L,20% de descuento con cualquier medio de pago - Vigencia: Desde el 24/08/2022 Hasta el 04/09/2022 - Stock: Hasta agotar stock.,527.2,659.0,,,True,Ameghino 1250,La Anonima,Santa Rosa,S.A. Importadora y Exportadora de la Patagonia,2,LA MERCED,Yerba Mate Campo Origen Controlado La Merced 500 Gr,500.0 gr,2022-08-24,Cluster 3
1075694,1075694,sucursales,1,-51.62154,-69.24552,RIO GALLEGOS 4,7790387015607,Supermercado,AR-Z,20% de descuento con cualquier medio de pago - Vigencia: Desde el 24/08/2022 Hasta el 04/09/2022 - Stock: Hasta agotar stock.,548.0,685.0,,,True,Santa Fe 1385,La Anonima,Rio Gallegos,S.A. Importadora y Exportadora de la Patagonia,2,LA MERCED,Yerba Mate Campo Origen Controlado La Merced 500 Gr,500.0 gr,2022-08-24,Cluster 3
1075695,1075695,sucursales,1,-39.02793,-67.59007,AUTOSERVICIO 2 G.ROCA,7790387015607,Supermercado,AR-R,20% de descuento con cualquier medio de pago - Vigencia: Desde el 24/08/2022 Hasta el 04/09/2022 - Stock: Hasta agotar stock.,527.2,659.0,,,True,San Juan 1425,La Anonima,General Roca,S.A. Importadora y Exportadora de la Patagonia,2,LA MERCED,Yerba Mate Campo Origen Controlado La Merced 500 Gr,500.0 gr,2022-08-24,Cluster 3
1075696,1075696,sucursales,1,-34.29066,-60.25439,SALTO,7790387015607,Supermercado,AR-B,20% de descuento con cualquier medio de pago - Vigencia: Desde el 24/08/2022 Hasta el 04/09/2022 - Stock: Hasta agotar stock.,527.2,659.0,,,True,Moreno 360,La Anonima,Salto,S.A. Importadora y Exportadora de la Patagonia,2,LA MERCED,Yerba Mate Campo Origen Controlado La Merced 500 Gr,500.0 gr,2022-08-24,Cluster 3
1075697,1075697,sucursales,1,-47.74349,-65.88699,PUERTO DESEADO,7790387015607,Supermercado,AR-Z,20% de descuento con cualquier medio de pago - Vigencia: Desde el 24/08/2022 Hasta el 04/09/2022 - Stock: Hasta agotar stock.,567.2,709.0,,,True,Perito Moreno 945,La Anonima,Puerto Deseado,S.A. Importadora y Exportadora de la Patagonia,2,LA MERCED,Yerba Mate Campo Origen Controlado La Merced 500 Gr,500.0 gr,2022-08-24,Cluster 3
1075698,1075698,sucursales,1,-34.06645,-60.10442,ARRECIFES,7790387015607,Supermercado,AR-B,20% de descuento con cualquier medio de pago - Vigencia: Desde el 24/08/2022 Hasta el 04/09/2022 - Stock: Hasta agotar stock.,527.2,659.0,,,True,Dr. Carlos Merlasino 524,La Anonima,Arrecifes,S.A. Importadora y Exportadora de la Patagonia,2,LA MERCED,Yerba Mate Campo Origen Controlado La Merced 500 Gr,500.0 gr,2022-08-24,Cluster 3
1075699,1075699,sucursales,1,-34.86354,-61.52866,LINCOLN,7790387015607,Supermercado,AR-B,20% de descuento con cualquier medio de pago - Vigencia: Desde el 24/08/2022 Hasta el 04/09/2022 - Stock: Hasta agotar stock.,527.2,659.0,,,True,Ituzaingo 147,La Anonima,Lincoln,S.A. Importadora y Exportadora de la Patagonia,2,LA MERCED,Yerba Mate Campo Origen Controlado La Merced 500 Gr,500.0 gr,2022-08-24,Cluster 3
1075700,1075700,sucursales,1,-40.15754,-71.35624,SAN MARTIN DE LOS ANDES,7790387015607,Supermercado,AR-Q,20% de descuento con cualquier medio de pago - Vigencia: Desde el 24/08/2022 Hasta el 04/09/2022 - Stock: Hasta agotar stock.,548.0,685.0,,,True,Tte. Gral. Roca 450,La Anonima,San Martin de los Andes,S.A. Importadora y Exportadora de la Patagonia,2,LA MERCED,Yerba Mate Campo Origen Controlado La Merced 500 Gr,500.0 gr,2022-08-24,Cluster 3
1075701,1075701,sucursales,1,-35.98011,-62.72832,TRENQUE LAUQUEN - SAIEP,7790387015607,Supermercado,AR-B,20% de descuento con cualquier medio de pago - Vigencia: Desde el 24/08/2022 Hasta el 04/09/2022 - Stock: Hasta agotar stock.,527.2,659.0,,,True,Av. Garcia Salinas 1100,La Anonima,Trenque Lauquen,S.A. Importadora y Exportadora de la Patagonia,2,LA MERCED,Yerba Mate Campo Origen Controlado La Merced 500 Gr,500.0 gr,2022-08-24,Cluster 3
1075702,1075702,sucursales,1,-45.58951,-69.06822,SARMIENTO,7790387015607,Supermercado,AR-U,20% de descuento con cualquier medio de pago - Vigencia: Desde el 24/08/2022 Hasta el 04/09/2022 - Stock: Hasta agotar stock.,567.2,709.0,,,True,España 412,La Anonima,Sarmiento,S.A. Importadora y Exportadora de la Patagonia,2,LA MERCED,Yerba Mate Campo Origen Controlado La Merced 500 Gr,500.0 gr,2022-08-24,Cluster 3
1075703,1075703,sucursales,1,-36.6276,-64.28149,LURO,7790387015607,Supermercado,AR-L,20% de descuento con cualquier medio de pago - Vigencia: Desde el 24/08/2022 Hasta el 04/09/2022 - Stock: Hasta agotar stock.,527.2,659.0,,,True,Martin Fierro 1296,La Anonima,Santa Rosa,S.A. Importadora y Exportadora de la Patagonia,2,LA MERCED,Yerba Mate Campo Origen Controlado La Merced 500 Gr,500.0 gr,2022-08-24,Cluster 3
1075704,1075704,sucursales,1,-35.65592,-63.75704,GENERAL PICO,7790387015607,Supermercado,AR-L,20% de descuento con cualquier medio de pago - Vigencia: Desde el 24/08/2022 Hasta el 04/09/2022 - Stock: Hasta agotar stock.,527.2,659.0,,,True,Calle 7 1064,La Anonima,General Pico,S.A. Importadora y Exportadora de la Patagonia,2,LA MERCED,Yerba Mate Campo Origen Controlado La Merced 500 Gr,500.0 gr,2022-08-24,Cluster 3
1075705,1075705,sucursales,1,-34.26447,-62.71067,RUFINO,7790387015607,Supermercado,AR-S,20% de descuento con cualquier medio de pago - Vigencia: Desde el 24/08/2022 Hasta el 04/09/2022 - Stock: Hasta agotar stock.,527.2,659.0,,,True,H. Yrigoyen 277,La Anonima,Rufino,S.A. Importadora y Exportadora de la Patagonia,2,LA MERCED,Yerba Mate Campo Origen Controlado La Merced 500 Gr,500.0 gr,2022-08-24,Cluster 3
1075706,1075706,sucursales,1,-34.85033,-62.46676,AMEGHINO,7790387015607,Supermercado,AR-B,20% de descuento con cualquier medio de pago - Vigencia: Desde el 24/08/2022 Hasta el 04/09/2022 - Stock: Hasta agotar stock.,527.2,659.0,,,True,Calle 1 540,La Anonima,Florentino Ameghino,S.A. Importadora y Exportadora de la Patagonia,2,LA MERCED,Yerba Mate Campo Origen Controlado La Merced 500 Gr,500.0 gr,2022-08-24,Cluster 3
1075707,1075707,sucursales,1,-35.62458,-61.36643,CARLOS CASARES,7790387015607,Supermercado,AR-B,20% de descuento con cualquier medio de pago - Vigencia: Desde el 24/08/2022 Hasta el 04/09/2022 - Stock: Hasta agotar stock.,527.2,659.0,,,True,Vicente Lopez 40,La Anonima,Carlos Casares,S.A. Importadora y Exportadora de la Patagonia,2,LA MERCED,Yerba Mate Campo Origen Controlado La Merced 500 Gr,500.0 gr,2022-08-24,Cluster 3
1075708,1075708,sucursales,1,-34.12495,-63.38761,LABOULAYE,7790387015607,Supermercado,AR-X,20% de descuento con cualquier medio de pago - Vigencia: Desde el 24/08/2022 Hasta el 04/09/2022 - Stock: Hasta agotar stock.,527.2,659.0,,,True,España 88,La Anonima,Laboulaye,S.A. Importadora y Exportadora de la Patagonia,2,LA MERCED,Yerba Mate Campo Origen Controlado La Merced 500 Gr,500.0 gr,2022-08-24,Cluster 3
1075709,1075709,sucursales,1,-36.62204,-64.28694,LISANDRO DE LA TORRE,7790387015607,Supermercado,AR-L,20% de descuento con cualquier medio de pago - Vigencia: Desde el 24/08/2022 Hasta el 04/09/2022 - Stock: Hasta agotar stock.,527.2,659.0,,,True,Lisandro De La Torre 333,La Anonima,Santa Rosa,S.A. Importadora y Exportadora de la Patagonia,2,LA MERCED,Yerba Mate Campo Origen Controlado La Merced 500 Gr,500.0 gr,2022-08-24,Cluster 3
1075710,1075710,sucursales,1,-51.61501,-69.22786,GALLEGOS 5,7790387015607,Supermercado,AR-Z,20% de descuento con cualquier medio de pago - Vigencia: Desde el 24/08/2022 Hasta el 04/09/2022 - Stock: Hasta agotar stock.,548.0,685.0,,,True,Mendoza 36,La Anonima,Rio Gallegos,S.A. Importadora y Exportadora de la Patagonia,2,LA MERCED,Yerba Mate Campo Origen Controlado La Merced 500 Gr,500.0 gr,2022-08-24,Cluster 3
1075711,1075711,sucursales,1,-35.81365,-61.89821,PEHUAJO,7790387015607,Supermercado,AR-B,20% de descuento con cualquier medio de pago - Vigencia: Desde el 24/08/2022 Hasta el 04/09/2022 - Stock: Hasta agotar stock.,527.2,659.0,,,True,Rivarola 310,La Anonima,Pehuajo,S.A. Importadora y Exportadora de la Patagonia,2,LA MERCED,Yerba Mate Campo Origen Controlado La Merced 500 Gr,500.0 gr,2022-08-24,Cluster 3
1075712,1075712,sucursales,1,-35.03165,-63.0156,DELTA VILLEGAS,7790387015607,Supermercado,AR-B,20% de descuento con cualquier medio de pago - Vigencia: Desde el 24/08/2022 Hasta el 04/09/2022 - Stock: Hasta agotar stock.,527.2,659.0,,,True,San Martin 200,La Anonima,General Villegas,S.A. Importadora y Exportadora de la Patagonia,2,LA MERCED,Yerba Mate Campo Origen Controlado La Merced 500 Gr,500.0 gr,2022-08-24,Cluster 3
1075713,1075713,sucursales,1,-50.33778,-72.26159,EL CALAFATE,7790387015607,Supermercado,AR-Z,20% de descuento con cualquier medio de pago - Vigencia: Desde el 24/08/2022 Hasta el 04/09/2022 - Stock: Hasta agotar stock.,567.2,709.0,,,True,Av. Del Libertador 902,La Anonima,El Calafate,S.A. Importadora y Exportadora de la Patagonia,2,LA MERCED,Yerba Mate Campo Origen Controlado La Merced 500 Gr,500.0 gr,2022-08-24,Cluster 3
1075714,1075714,sucursales,1,-43.25654,-65.32175,TRELEW 25 DE MAYO,7790387015607,Supermercado,AR-U,20% de descuento con cualquier medio de pago - Vigencia: Desde el 24/08/2022 Hasta el 04/09/2022 - Stock: Hasta agotar stock.,548.0,685.0,,,True,25 De Mayo 1151,La Anonima,Trelew,S.A. Importadora y Exportadora de la Patagonia,2,LA MERCED,Yerba Mate Campo Origen Controlado La Merced 500 Gr,500.0 gr,2022-08-24,Cluster 3
1075715,1075715,sucursales,1,-51.53555,-72.33617,RIO TURBIO,7790387015607,Supermercado,AR-Z,20% de descuento con cualquier medio de pago - Vigencia: Desde el 24/08/2022 Hasta el 04/09/2022 - Stock: Hasta agotar stock.,567.2,709.0,,,True,Moyano 200,La Anonima,Yacimientos Rio Turbio,S.A. Importadora y Exportadora de la Patagonia,2,LA MERCED,Yerba Mate Campo Origen Controlado La Merced 500 Gr,500.0 gr,2022-08-24,Cluster 3
1075716,1075716,sucursales,1,-54.8101,-68.31831,USHUAIA 4,7790387015607,Supermercado,AR-V,20% de descuento con cualquier medio de pago - Vigencia: Desde el 24/08/2022 Hasta el 04/09/2022 - Stock: Hasta agotar stock.,524.0,655.0,,,True,San Martin 1506,La Anonima,Ushuaia,S.A. Importadora y Exportadora de la Patagonia,2,LA MERCED,Yerba Mate Campo Origen Controlado La Merced 500 Gr,500.0 gr,2022-08-24,Cluster 3
1075717,1075717,sucursales,1,-36.6135,-64.29123,LUCERO SANTA ROSA,7790387015607,Supermercado,AR-L,20% de descuento con cualquier medio de pago - Vigencia: Desde el 24/08/2022 Hasta el 04/09/2022 - Stock: Hasta agotar stock.,527.2,659.0,,,True,La Rioja 357,La Anonima,Santa Rosa,S.A. Importadora y Exportadora de la Patagonia,2,LA MERCED,Yerba Mate Campo Origen Controlado La Merced 500 Gr,500.0 gr,2022-08-24,Cluster 3
1075718,1075718,sucursales,1,-46.80335,-67.95773,PICO TRUNCADO,7790387015607,Supermercado,AR-Z,20% de descuento con cualquier medio de pago - Vigencia: Desde el 24/08/2022 Hasta el 04/09/2022 - Stock: Hasta agotar stock.,567.2,709.0,,,True,Saavedra 1000,La Anonima,Pico Truncado,S.A. Importadora y Exportadora de la Patagonia,2,LA MERCED,Yerba Mate Campo Origen Controlado La Merced 500 Gr,500.0 gr,2022-08-24,Cluster 3
1075719,1075719,sucursales,1,-39.95175,-71.06953,JUNIN DE LOS ANDES,7790387015607,Supermercado,AR-Q,20% de descuento con cualquier medio de pago - Vigencia: Desde el 24/08/2022 Hasta el 04/09/2022 - Stock: Hasta agotar stock.,548.0,685.0,,,True,Coronel Suarez 465,La Anonima,Junin de los Andes,S.A. Importadora y Exportadora de la Patagonia,2,LA MERCED,Yerba Mate Campo Origen Controlado La Merced 500 Gr,500.0 gr,2022-08-24,Cluster 3
1075720,1075720,sucursales,1,-35.4919,-62.97987,AMERICA II,7790387015607,Supermercado,AR-B,20% de descuento con cualquier medio de pago - Vigencia: Desde el 24/08/2022 Hasta el 04/09/2022 - Stock: Hasta agotar stock.,527.2,659.0,,,True,Viamonte 240,La Anonima,America,S.A. Importadora y Exportadora de la Patagonia,2,LA MERCED,Yerba Mate Campo Origen Controlado La Merced 500 Gr,500.0 gr,2022-08-24,Cluster 3
1075721,1075721,sucursales,1,-35.25009,-63.60053,INTENDENTE ALVEAR,7790387015607,Supermercado,AR-L,20% de descuento con cualquier medio de pago - Vigencia: Desde el 24/08/2022 Hasta el 04/09/2022 - Stock: Hasta agotar stock.,527.2,659.0,,,True,Av. Sarmiento 1065,La Anonima,Intendente Alvear,S.A. Importadora y Exportadora de la Patagonia,2,LA MERCED,Yerba Mate Campo Origen Controlado La Merced 500 Gr,500.0 gr,2022-08-24,Cluster 3
1075722,1075722,sucursales,1,-31.25349,-61.49254,QUIJOTE CENTRO,7790387015607,Hipermercado,AR-S,20% de descuento con cualquier medio de pago - Vigencia: Desde el 24/08/2022 Hasta el 04/09/2022 - Stock: Hasta agotar stock.,527.2,659.0,,,True,Rivadavia 53,La Anonima,Rafaela,S.A. Importadora y Exportadora de la Patagonia,2,LA MERCED,Yerba Mate Campo Origen Controlado La Merced 500 Gr,500.0 gr,2022-08-24,Cluster 3
1075723,1075723,sucursales,1,-31.25889,-61.51056,QUIJOTE MAX 1,7790387015607,Supermercado,AR-S,20% de descuento con cualquier medio de pago - Vigencia: Desde el 24/08/2022 Hasta el 04/09/2022 - Stock: Hasta agotar stock.,527.2,659.0,,,True,Lincoln 1598,La Anonima,Rafaela,S.A. Importadora y Exportadora de la Patagonia,2,LA MERCED,Yerba Mate Campo Origen Controlado La Merced 500 Gr,500.0 gr,2022-08-24,Cluster 3
1075724,1075724,sucursales,1,-31.25189,-61.46342,QUIJOTE MAX2,7790387015607,Supermercado,AR-S,20% de descuento con cualquier medio de pago - Vigencia: Desde el 24/08/2022 Hasta el 04/09/2022 - Stock: Hasta agotar stock.,527.2,659.0,,,True,Aconcagua 555,La Anonima,Rafaela,S.A. Importadora y Exportadora de la Patagonia,2,LA MERCED,Yerba Mate Campo Origen Controlado La Merced 500 Gr,500.0 gr,2022-08-24,Cluster 3
1075725,1075725,sucursales,1,-31.44994,-60.92991,QUIJOTE ESPERANZA,7790387015607,Supermercado,AR-S,20% de descuento con cualquier medio de pago - Vigencia: Desde el 24/08/2022 Hasta el 04/09/2022 - Stock: Hasta agotar stock.,527.2,659.0,,,True,Belgrano 1998,La Anonima,Esperanza,S.A. Importadora y Exportadora de la Patagonia,2,LA MERCED,Yerba Mate Campo Origen Controlado La Merced 500 Gr,500.0 gr,2022-08-24,Cluster 3
1075726,1075726,sucursales,1,-31.89645,-61.86085,QUIJOTE SAN JORGE,7790387015607,Supermercado,AR-S,20% de descuento con cualquier medio de pago - Vigencia: Desde el 24/08/2022 Hasta el 04/09/2022 - Stock: Hasta agotar stock.,527.2,659.0,,,True,Bartolome Mitre 1143,La Anonima,San Jorge,S.A. Importadora y Exportadora de la Patagonia,2,LA MERCED,Yerba Mate Campo Origen Controlado La Merced 500 Gr,500.0 gr,2022-08-24,Cluster 3
1075727,1075727,sucursales,1,-45.88288,-67.5388,BARRIO 1008,7790387015607,Supermercado,AR-U,20% de descuento con cualquier medio de pago - Vigencia: Desde el 24/08/2022 Hasta el 04/09/2022 - Stock: Hasta agotar stock.,548.0,685.0,,,True,Av. Chile 1625,La Anonima,Comodoro Rivadavia,S.A. Importadora y Exportadora de la Patagonia,2,LA MERCED,Yerba Mate Campo Origen Controlado La Merced 500 Gr,500.0 gr,2022-08-24,Cluster 3
1075728,1075728,sucursales,1,-46.54639,-68.92791,LAS HERAS,7790387015607,Hipermercado,AR-Z,20% de descuento con cualquier medio de pago - Vigencia: Desde el 24/08/2022 Hasta el 04/09/2022 - Stock: Hasta agotar stock.,567.2,709.0,,,True,Pto. Santa Cruz 900,La Anonima,Las Heras,S.A. Importadora y Exportadora de la Patagonia,2,LA MERCED,Yerba Mate Campo Origen Controlado La Merced 500 Gr,500.0 gr,2022-08-24,Cluster 3
1075729,1075729,sucursales,1,-50.34712,-72.26895,CALAFATE II,7790387015607,Supermercado,AR-Z,20% de descuento con cualquier medio de pago - Vigencia: Desde el 24/08/2022 Hasta el 04/09/2022 - Stock: Hasta agotar stock.,567.2,709.0,,,True,Calle 4000 166,La Anonima,El Calafate,S.A. Importadora y Exportadora de la Patagonia,2,LA MERCED,Yerba Mate Campo Origen Controlado La Merced 500 Gr,500.0 gr,2022-08-24,Cluster 3
1075730,1075730,sucursales,1,-38.95045,-68.11147,NEUQUEN III,7790387015607,Supermercado,AR-Q,20% de descuento con cualquier medio de pago - Vigencia: Desde el 24/08/2022 Hasta el 04/09/2022 - Stock: Hasta agotar stock.,527.2,659.0,,,True,Belgrano 3775,La Anonima,Neuquen,S.A. Importadora y Exportadora de la Patagonia,2,LA MERCED,Yerba Mate Campo Origen Controlado La Merced 500 Gr,500.0 gr,2022-08-24,Cluster 3
1075731,1075731,sucursales,1,-41.61137,-65.35849,SIERRA GRANDE,7790387015607,Supermercado,AR-R,20% de descuento con cualquier medio de pago - Vigencia: Desde el 24/08/2022 Hasta el 04/09/2022 - Stock: Hasta agotar stock.,548.0,685.0,,,True,J.J. Paso 100,La Anonima,Sierra Grande,S.A. Importadora y Exportadora de la Patagonia,2,LA MERCED,Yerba Mate Campo Origen Controlado La Merced 500 Gr,500.0 gr,2022-08-24,Cluster 3
1075732,1075732,sucursales,1,-38.92663,-67.99051,CIPOLLETTI 3,7790387015607,Supermercado,AR-R,20% de descuento con cualquier medio de pago - Vigencia: Desde el 24/08/2022 Hasta el 04/09/2022 - Stock: Hasta agotar stock.,527.2,659.0,,,True,Esmeralda 1333,La Anonima,Cipolletti,S.A. Importadora y Exportadora de la Patagonia,2,LA MERCED,Yerba Mate Campo Origen Controlado La Merced 500 Gr,500.0 gr,2022-08-24,Cluster 3
1075733,1075733,sucursales,1,-41.971,-71.53105,EL BOLSON 2,7790387015607,Supermercado,AR-R,20% de descuento con cualquier medio de pago - Vigencia: Desde el 24/08/2022 Hasta el 04/09/2022 - Stock: Hasta agotar stock.,567.2,709.0,,,True,Guemes 741,La Anonima,El Bolson,S.A. Importadora y Exportadora de la Patagonia,2,LA MERCED,Yerba Mate Campo Origen Controlado La Merced 500 Gr,500.0 gr,2022-08-24,Cluster 3
1075734,1075734,sucursales,1,-54.83064,-68.35343,USHUAIA 5,7790387015607,Supermercado,AR-V,20% de descuento con cualquier medio de pago - Vigencia: Desde el 24/08/2022 Hasta el 04/09/2022 - Stock: Hasta agotar stock.,524.0,655.0,,,True,Los Ñires 2237,La Anonima,Ushuaia,S.A. Importadora y Exportadora de la Patagonia,2,LA MERCED,Yerba Mate Campo Origen Controlado La Merced 500 Gr,500.0 gr,2022-08-24,Cluster 3
1075735,1075735,sucursales,1,-42.78087,-65.03707,PUERTO MADRYN 3,7790387015607,Supermercado,AR-U,20% de descuento con cualquier medio de pago - Vigencia: Desde el 24/08/2022 Hasta el 04/09/2022 - Stock: Hasta agotar stock.,548.0,685.0,,,True,Chubut 1400,La Anonima,Puerto Madryn,S.A. Importadora y Exportadora de la Patagonia,2,LA MERCED,Yerba Mate Campo Origen Controlado La Merced 500 Gr,500.0 gr,2022-08-24,Cluster 3
1075736,1075736,sucursales,1,-43.09829,-71.46402,TREVELIN,7790387015607,Supermercado,AR-U,20% de descuento con cualquier medio de pago - Vigencia: Desde el 24/08/2022 Hasta el 04/09/2022 - Stock: Hasta agotar stock.,567.2,709.0,,,True,Av. San Martin 1440,La Anonima,Trevelin,S.A. Importadora y Exportadora de la Patagonia,2,LA MERCED,Yerba Mate Campo Origen Controlado La Merced 500 Gr,500.0 gr,2022-08-24,Cluster 3
1075737,1075737,sucursales,1,-30.78491,-60.58548,SAN JUSTO,7790387015607,Supermercado,AR-S,20% de descuento con cualquier medio de pago - Vigencia: Desde el 24/08/2022 Hasta el 04/09/2022 - Stock: Hasta agotar stock.,527.2,659.0,,,True,9 De Julio 2530,La Anonima,San Justo,S.A. Importadora y Exportadora de la Patagonia,2,LA MERCED,Yerba Mate Campo Origen Controlado La Merced 500 Gr,500.0 gr,2022-08-24,Cluster 3
1075782,1075782,sucursales,1,-37.3954,-68.92306,RINCON DE LOS SAUCES 2,7790387015607,Supermercado,AR-Q,20% de descuento con cualquier medio de pago - Vigencia: Desde el 24/08/2022 Hasta el 04/09/2022 - Stock: Hasta agotar stock.,567.2,709.0,,,True,Belgrano 1419,La Anonima,Rincon de los Sauces,S.A. Importadora y Exportadora de la Patagonia,2,LA MERCED,Yerba Mate Campo Origen Controlado La Merced 500 Gr,500.0 gr,2022-08-24,Cluster 3
1075783,1075783,sucursales,1,-34.59004,-60.9481,JUNIN 2,7790387015607,Supermercado,AR-B,20% de descuento con cualquier medio de pago - Vigencia: Desde el 24/08/2022 Hasta el 04/09/2022 - Stock: Hasta agotar stock.,527.2,659.0,,,True,Bernardino Rivadavia 199,La Anonima,Junin,S.A. Importadora y Exportadora de la Patagonia,2,LA MERCED,Yerba Mate Campo Origen Controlado La Merced 500 Gr,500.0 gr,2022-08-24,Cluster 3
1075784,1075784,sucursales,1,-41.1015,-71.44459,BARILOCHE 5,7790387015607,Supermercado,AR-R,20% de descuento con cualquier medio de pago - Vigencia: Desde el 24/08/2022 Hasta el 04/09/2022 - Stock: Hasta agotar stock.,548.0,685.0,,,True,Av. Bustillo Km 13 12974,La Anonima,San Carlos de Bariloche,S.A. Importadora y Exportadora de la Patagonia,2,LA MERCED,Yerba Mate Campo Origen Controlado La Merced 500 Gr,500.0 gr,2022-08-24,Cluster 3
1075785,1075785,sucursales,1,-40.75889,-71.64819,V.LA ANGOSTURA 2,7790387015607,Supermercado,AR-Q,20% de descuento con cualquier medio de pago - Vigencia: Desde el 24/08/2022 Hasta el 04/09/2022 - Stock: Hasta agotar stock.,548.0,685.0,,,True,El Chilco 83,La Anonima,Villa la Angostura,S.A. Importadora y Exportadora de la Patagonia,2,LA MERCED,Yerba Mate Campo Origen Controlado La Merced 500 Gr,500.0 gr,2022-08-24,Cluster 3
1075786,1075786,sucursales,1,-45.92969,-67.57155,RADA TILLY,7790387015607,Supermercado,AR-U,20% de descuento con cualquier medio de pago - Vigencia: Desde el 24/08/2022 Hasta el 04/09/2022 - Stock: Hasta agotar stock.,548.0,685.0,,,True,Luque 1200,La Anonima,Rada Tilly,S.A. Importadora y Exportadora de la Patagonia,2,LA MERCED,Yerba Mate Campo Origen Controlado La Merced 500 Gr,500.0 gr,2022-08-24,Cluster 3
1075787,1075787,sucursales,1,-43.31881,-65.04949,PLAYA UNION,7790387015607,Supermercado,AR-U,20% de descuento con cualquier medio de pago - Vigencia: Desde el 24/08/2022 Hasta el 04/09/2022 - Stock: Hasta agotar stock.,548.0,685.0,,,True,Cacique Nahuelpan 1071,La Anonima,Playa Union,S.A. Importadora y Exportadora de la Patagonia,2,LA MERCED,Yerba Mate Campo Origen Controlado La Merced 500 Gr,500.0 gr,2022-08-24,Cluster 3
1075788,1075788,sucursales,1,-38.94792,-68.22579,PLOTTIER,7790387015607,Supermercado,AR-Q,20% de descuento con cualquier medio de pago - Vigencia: Desde el 24/08/2022 Hasta el 04/09/2022 - Stock: Hasta agotar stock.,527.2,659.0,,,True,San Martin 507,La Anonima,Plottier,S.A. Importadora y Exportadora de la Patagonia,2,LA MERCED,Yerba Mate Campo Origen Controlado La Merced 500 Gr,500.0 gr,2022-08-24,Cluster 3
1075789,1075789,sucursales,1,-51.63847,-69.21997,RIO GALLEGOS 6,7790387015607,Supermercado,AR-Z,20% de descuento con cualquier medio de pago - Vigencia: Desde el 24/08/2022 Hasta el 04/09/2022 - Stock: Hasta agotar stock.,548.0,685.0,,,True,Juan Jose Paso 1475,La Anonima,Rio Gallegos,S.A. Importadora y Exportadora de la Patagonia,2,LA MERCED,Yerba Mate Campo Origen Controlado La Merced 500 Gr,500.0 gr,2022-08-24,Cluster 3
1075790,1075790,sucursales,1,-49.98665,-68.92483,PIEDRA BUENA,7790387015607,Supermercado,AR-Z,20% de descuento con cualquier medio de pago - Vigencia: Desde el 24/08/2022 Hasta el 04/09/2022 - Stock: Hasta agotar stock.,567.2,709.0,,,True,Av. 21 De Noviembre 600,La Anonima,Piedra Buena,S.A. Importadora y Exportadora de la Patagonia,2,LA MERCED,Yerba Mate Campo Origen Controlado La Merced 500 Gr,500.0 gr,2022-08-24,Cluster 3
1075791,1075791,sucursales,1,-36.78374,-59.85291,AZUL,7790387015607,Supermercado,AR-B,20% de descuento con cualquier medio de pago - Vigencia: Desde el 24/08/2022 Hasta el 04/09/2022 - Stock: Hasta agotar stock.,527.2,659.0,,,True,Monseñor Caneva 560,La Anonima,Azul,S.A. Importadora y Exportadora de la Patagonia,2,LA MERCED,Yerba Mate Campo Origen Controlado La Merced 500 Gr,500.0 gr,2022-08-24,Cluster 3
1075792,1075792,sucursales,1,-46.80191,-67.94655,PICO TRUNCADO 2,7790387015607,Supermercado,AR-Z,20% de descuento con cualquier medio de pago - Vigencia: Desde el 24/08/2022 Hasta el 04/09/2022 - Stock: Hasta agotar stock.,567.2,709.0,,,True,20 De Noviembre 451,La Anonima,Pico Truncado,S.A. Importadora y Exportadora de la Patagonia,2,LA MERCED,Yerba Mate Campo Origen Controlado La Merced 500 Gr,500.0 gr,2022-08-24,Cluster 3
1075793,1075793,sucursales,1,-35.91227,-64.28585,CASTEX 2,7790387015607,Supermercado,AR-L,20% de descuento con cualquier medio de pago - Vigencia: Desde el 24/08/2022 Hasta el 04/09/2022 - Stock: Hasta agotar stock.,527.2,659.0,,,True,Av. Independencia 2575,La Anonima,Eduardo Castex,S.A. Importadora y Exportadora de la Patagonia,2,LA MERCED,Yerba Mate Campo Origen Controlado La Merced 500 Gr,500.0 gr,2022-08-24,Cluster 3
1075794,1075794,sucursales,1,-37.88435,-67.79886,CATRIEL 2,7790387015607,Supermercado,AR-R,20% de descuento con cualquier medio de pago - Vigencia: Desde el 24/08/2022 Hasta el 04/09/2022 - Stock: Hasta agotar stock.,567.2,709.0,,,True,Ing. Eduardo Garro 538,La Anonima,Catriel,S.A. Importadora y Exportadora de la Patagonia,2,LA MERCED,Yerba Mate Campo Origen Controlado La Merced 500 Gr,500.0 gr,2022-08-24,Cluster 3
1075795,1075795,sucursales,1,-42.91426,-71.29899,ESQUEL 3,7790387015607,Supermercado,AR-U,20% de descuento con cualquier medio de pago - Vigencia: Desde el 24/08/2022 Hasta el 04/09/2022 - Stock: Hasta agotar stock.,567.2,709.0,,,True,Av. Holdich 424,La Anonima,Esquel,S.A. Importadora y Exportadora de la Patagonia,2,LA MERCED,Yerba Mate Campo Origen Controlado La Merced 500 Gr,500.0 gr,2022-08-24,Cluster 3
1075796,1075796,sucursales,1,-49.30339,-67.7518,SAN JULIAN,7790387015607,Supermercado,AR-Z,20% de descuento con cualquier medio de pago - Vigencia: Desde el 24/08/2022 Hasta el 04/09/2022 - Stock: Hasta agotar stock.,567.2,709.0,,,True,Darwin 2371,La Anonima,San Julian,S.A. Importadora y Exportadora de la Patagonia,2,LA MERCED,Yerba Mate Campo Origen Controlado La Merced 500 Gr,500.0 gr,2022-08-24,Cluster 3
1075797,1075797,sucursales,1,-39.0131,-67.59882,GENERAL ROCA 4,7790387015607,Supermercado,AR-R,20% de descuento con cualquier medio de pago - Vigencia: Desde el 24/08/2022 Hasta el 04/09/2022 - Stock: Hasta agotar stock.,527.2,659.0,,,True,Evita 2475,La Anonima,General Roca,S.A. Importadora y Exportadora de la Patagonia,2,LA MERCED,Yerba Mate Campo Origen Controlado La Merced 500 Gr,500.0 gr,2022-08-24,Cluster 3
1075798,1075798,sucursales,1,-35.66545,-63.76632,STELLA MARIS,7790387015607,Supermercado,AR-L,20% de descuento con cualquier medio de pago - Vigencia: Desde el 24/08/2022 Hasta el 04/09/2022 - Stock: Hasta agotar stock.,527.2,659.0,,,True,Calle 9 51,La Anonima,General Pico,S.A. Importadora y Exportadora de la Patagonia,2,LA MERCED,Yerba Mate Campo Origen Controlado La Merced 500 Gr,500.0 gr,2022-08-24,Cluster 3
1075799,1075799,sucursales,1,-48.75044,-70.24761,GOBERNADOR GREGORES,7790387015607,Supermercado,AR-Z,20% de descuento con cualquier medio de pago - Vigencia: Desde el 24/08/2022 Hasta el 04/09/2022 - Stock: Hasta agotar stock.,567.2,709.0,,,True,San Martin 680,La Anonima,Gobernador Gregores,S.A. Importadora y Exportadora de la Patagonia,2,LA MERCED,Yerba Mate Campo Origen Controlado La Merced 500 Gr,500.0 gr,2022-08-24,Cluster 3
1075800,1075800,sucursales,1,-51.62891,-69.23756,RIO GALLEGOS 7,7790387015607,Supermercado,AR-Z,20% de descuento con cualquier medio de pago - Vigencia: Desde el 24/08/2022 Hasta el 04/09/2022 - Stock: Hasta agotar stock.,548.0,685.0,,,True,Corrientes 1308,La Anonima,Rio Gallegos,S.A. Importadora y Exportadora de la Patagonia,2,LA MERCED,Yerba Mate Campo Origen Controlado La Merced 500 Gr,500.0 gr,2022-08-24,Cluster 3
1075801,1075801,sucursales,1,-51.63544,-69.20936,RIO GALLEGOS 8,7790387015607,Supermercado,AR-Z,20% de descuento con cualquier medio de pago - Vigencia: Desde el 24/08/2022 Hasta el 04/09/2022 - Stock: Hasta agotar stock.,548.0,685.0,,,True,Liniers 990,La Anonima,Rio Gallegos,S.A. Importadora y Exportadora de la Patagonia,2,LA MERCED,Yerba Mate Campo Origen Controlado La Merced 500 Gr,500.0 gr,2022-08-24,Cluster 3
1075802,1075802,sucursales,1,-51.61964,-69.22224,RIO GALLEGOS 9,7790387015607,Supermercado,AR-Z,20% de descuento con cualquier medio de pago - Vigencia: Desde el 24/08/2022 Hasta el 04/09/2022 - Stock: Hasta agotar stock.,548.0,685.0,,,True,Estrada 108,La Anonima,Rio Gallegos,S.A. Importadora y Exportadora de la Patagonia,2,LA MERCED,Yerba Mate Campo Origen Controlado La Merced 500 Gr,500.0 gr,2022-08-24,Cluster 3
1075803,1075803,sucursales,1,-34.64359,-59.43586,MERCEDES,7790387015607,Supermercado,AR-B,20% de descuento con cualquier medio de pago - Vigencia: Desde el 24/08/2022 Hasta el 04/09/2022 - Stock: Hasta agotar stock.,527.2,659.0,,,True,Calle 40 937,La Anonima,Mercedes,S.A. Importadora y Exportadora de la Patagonia,2,LA MERCED,Yerba Mate Campo Origen Controlado La Merced 500 Gr,500.0 gr,2022-08-24,Cluster 3
1075804,1075804,sucursales,1,-36.60009,-64.30213,SANTA ROSA V,7790387015607,Supermercado,AR-L,20% de descuento con cualquier medio de pago - Vigencia: Desde el 24/08/2022 Hasta el 04/09/2022 - Stock: Hasta agotar stock.,527.2,659.0,,,True,Pilcomayo 1551,La Anonima,Santa Rosa,S.A. Importadora y Exportadora de la Patagonia,2,LA MERCED,Yerba Mate Campo Origen Controlado La Merced 500 Gr,500.0 gr,2022-08-24,Cluster 3
1075805,1075805,sucursales,1,-35.97869,-62.7417,TRENQUE LAUQUEN 3,7790387015607,Supermercado,AR-B,20% de descuento con cualquier medio de pago - Vigencia: Desde el 24/08/2022 Hasta el 04/09/2022 - Stock: Hasta agotar stock.,527.2,659.0,,,True,Simini 836,La Anonima,Trenque Lauquen,S.A. Importadora y Exportadora de la Patagonia,2,LA MERCED,Yerba Mate Campo Origen Controlado La Merced 500 Gr,500.0 gr,2022-08-24,Cluster 3
1075806,1075806,sucursales,1,-51.57563,-72.21356,28 DE NOVIEMBRE 2,7790387015607,Supermercado,AR-Z,20% de descuento con cualquier medio de pago - Vigencia: Desde el 24/08/2022 Hasta el 04/09/2022 - Stock: Hasta agotar stock.,567.2,709.0,,,True,Ruta Nacional 40 Km 389,La Anonima,28 de Noviembre,S.A. Importadora y Exportadora de la Patagonia,2,LA MERCED,Yerba Mate Campo Origen Controlado La Merced 500 Gr,500.0 gr,2022-08-24,Cluster 3
1075807,1075807,sucursales,1,-51.61293,-69.24545,RIO GALLEGOS 10,7790387015607,Supermercado,AR-Z,20% de descuento con cualquier medio de pago - Vigencia: Desde el 24/08/2022 Hasta el 04/09/2022 - Stock: Hasta agotar stock.,548.0,685.0,,,True,Pablo Neruda 451,La Anonima,Rio Gallegos,S.A. Importadora y Exportadora de la Patagonia,2,LA MERCED,Yerba Mate Campo Origen Controlado La Merced 500 Gr,500.0 gr,2022-08-24,Cluster 3
1075808,1075808,sucursales,1,-29.12974,-59.26095,GOYA,7790387015607,Supermercado,AR-W,20% de descuento con cualquier medio de pago - Vigencia: Desde el 24/08/2022 Hasta el 04/09/2022 - Stock: Hasta agotar stock.,527.2,659.0,,,True,Av. Primeros Consejales 256,La Anonima,Goya,S.A. Importadora y Exportadora de la Patagonia,2,LA MERCED,Yerba Mate Campo Origen Controlado La Merced 500 Gr,500.0 gr,2022-08-24,Cluster 3
1075809,1075809,sucursales,1,-43.30021,-65.4914,GAIMAN,7790387015607,Supermercado,AR-U,20% de descuento con cualquier medio de pago - Vigencia: Desde el 24/08/2022 Hasta el 04/09/2022 - Stock: Hasta agotar stock.,548.0,685.0,,,True,Martin Miguel De Guemes 616,La Anonima,Gaiman,S.A. Importadora y Exportadora de la Patagonia,2,LA MERCED,Yerba Mate Campo Origen Controlado La Merced 500 Gr,500.0 gr,2022-08-24,Cluster 3
1075810,1075810,sucursales,1,-40.79454,-65.07588,LAS GRUTAS,7790387015607,Supermercado,AR-R,20% de descuento con cualquier medio de pago - Vigencia: Desde el 24/08/2022 Hasta el 04/09/2022 - Stock: Hasta agotar stock.,548.0,685.0,,,True,Punta Villarino 845,La Anonima,Las Grutas,S.A. Importadora y Exportadora de la Patagonia,2,LA MERCED,Yerba Mate Campo Origen Controlado La Merced 500 Gr,500.0 gr,2022-08-24,Cluster 3
1075811,1075811,sucursales,1,-54.50132,-67.20551,TOLHUIN,7790387015607,Supermercado,AR-V,20% de descuento con cualquier medio de pago - Vigencia: Desde el 24/08/2022 Hasta el 04/09/2022 - Stock: Hasta agotar stock.,524.0,655.0,,,True,Constitucion Nacional 1146,La Anonima,Tolhuin,S.A. Importadora y Exportadora de la Patagonia,2,LA MERCED,Yerba Mate Campo Origen Controlado La Merced 500 Gr,500.0 gr,2022-08-24,Cluster 3
1075812,1075812,sucursales,1,-40.14351,-71.30282,SAN MARTIN DE LOS ANDES II,7790387015607,Supermercado,AR-Q,20% de descuento con cualquier medio de pago - Vigencia: Desde el 24/08/2022 Hasta el 04/09/2022 - Stock: Hasta agotar stock.,548.0,685.0,,,True,Ruta 40 Km 2216.6 ,La Anonima,San Martin de los Andes,S.A. Importadora y Exportadora de la Patagonia,2,LA MERCED,Yerba Mate Campo Origen Controlado La Merced 500 Gr,500.0 gr,2022-08-24,Cluster 3
1075813,1075813,sucursales,1,-38.82733,-68.14441,CENTENARIO,7790387015607,Supermercado,AR-Q,20% de descuento con cualquier medio de pago - Vigencia: Desde el 24/08/2022 Hasta el 04/09/2022 - Stock: Hasta agotar stock.,527.2,659.0,,,True,Avenida Del Libertador 75,La Anonima,Centenario,S.A. Importadora y Exportadora de la Patagonia,2,LA MERCED,Yerba Mate Campo Origen Controlado La Merced 500 Gr,500.0 gr,2022-08-24,Cluster 3
1075814,1075814,sucursales,1,-46.58337,-70.93723,PERITO MORENO,7790387015607,Supermercado,AR-Z,20% de descuento con cualquier medio de pago - Vigencia: Desde el 24/08/2022 Hasta el 04/09/2022 - Stock: Hasta agotar stock.,567.2,709.0,,,True,Hipolito Irigoyen 2371,La Anonima,Perito Moreno,S.A. Importadora y Exportadora de la Patagonia,2,LA MERCED,Yerba Mate Campo Origen Controlado La Merced 500 Gr,500.0 gr,2022-08-24,Cluster 3
1075815,1075815,sucursales,1,-38.98832,-64.09719,RIO COLORADO,7790387015607,Supermercado,AR-R,20% de descuento con cualquier medio de pago - Vigencia: Desde el 24/08/2022 Hasta el 04/09/2022 - Stock: Hasta agotar stock.,527.2,659.0,,,True,9 De Julio 746,La Anonima,Rio Colorado,S.A. Importadora y Exportadora de la Patagonia,2,LA MERCED,Yerba Mate Campo Origen Controlado La Merced 500 Gr,500.0 gr,2022-08-24,Cluster 3
1075816,1075816,sucursales,1,-39.29873,-65.64802,CHOELE CHOEL,7790387015607,Supermercado,AR-R,20% de descuento con cualquier medio de pago - Vigencia: Desde el 24/08/2022 Hasta el 04/09/2022 - Stock: Hasta agotar stock.,527.2,659.0,,,True,Hector Gil 64,La Anonima,Choele Choel,S.A. Importadora y Exportadora de la Patagonia,2,LA MERCED,Yerba Mate Campo Origen Controlado La Merced 500 Gr,500.0 gr,2022-08-24,Cluster 3
1075817,1075817,sucursales,1,-46.44042,-67.54673,CALETA OLIVIA 3,7790387015607,Supermercado,AR-Z,20% de descuento con cualquier medio de pago - Vigencia: Desde el 24/08/2022 Hasta el 04/09/2022 - Stock: Hasta agotar stock.,548.0,685.0,,,True,Tierra Del Fuego 1886,La Anonima,Caleta Olivia,S.A. Importadora y Exportadora de la Patagonia,2,LA MERCED,Yerba Mate Campo Origen Controlado La Merced 500 Gr,500.0 gr,2022-08-24,Cluster 3
1075820,1075820,sucursales,1,-45.79548,-67.43295,COMODORO RIVADAVIA KM8,7790387015607,Supermercado,AR-U,20% de descuento con cualquier medio de pago - Vigencia: Desde el 24/08/2022 Hasta el 04/09/2022 - Stock: Hasta agotar stock.,548.0,685.0,,,True,Italo Delloro 1781,La Anonima,Comodoro Rivadavia,S.A. Importadora y Exportadora de la Patagonia,2,LA MERCED,Yerba Mate Campo Origen Controlado La Merced 500 Gr,500.0 gr,2022-08-24,Cluster 3
1075821,1075821,sucursales,1,-30.72523,-62.00968,MORTEROS,7790387015607,Supermercado,AR-X,20% de descuento con cualquier medio de pago - Vigencia: Desde el 24/08/2022 Hasta el 04/09/2022 - Stock: Hasta agotar stock.,527.2,659.0,,,True,Bv 9 De Julio 2339,La Anonima,Morteros,S.A. Importadora y Exportadora de la Patagonia,2,LA MERCED,Yerba Mate Campo Origen Controlado La Merced 500 Gr,500.0 gr,2022-08-24,Cluster 3
1075822,1075822,sucursales,1,-42.06011,-71.60036,LAGO PUELO,7790387015607,Supermercado,AR-U,20% de descuento con cualquier medio de pago - Vigencia: Desde el 24/08/2022 Hasta el 04/09/2022 - Stock: Hasta agotar stock.,567.2,709.0,,,True,Ruta Provincial 16 Km 11 ,La Anonima,Lago Puelo,S.A. Importadora y Exportadora de la Patagonia,2,LA MERCED,Yerba Mate Campo Origen Controlado La Merced 500 Gr,500.0 gr,2022-08-24,Cluster 3
1075823,1075823,sucursales,1,-38.94958,-69.21606,CUTRAL CO,7790387015607,Supermercado,AR-Q,20% de descuento con cualquier medio de pago - Vigencia: Desde el 24/08/2022 Hasta el 04/09/2022 - Stock: Hasta agotar stock.,548.0,685.0,,,True,Miguel Eguinoa 1802,La Anonima,Cutral Co,S.A. Importadora y Exportadora de la Patagonia,2,LA MERCED,Yerba Mate Campo Origen Controlado La Merced 500 Gr,500.0 gr,2022-08-24,Cluster 3
1075824,1075824,sucursales,1,-35.4569,-60.89051,9 DE JULIO,7790387015607,Supermercado,AR-B,20% de descuento con cualquier medio de pago - Vigencia: Desde el 24/08/2022 Hasta el 04/09/2022 - Stock: Hasta agotar stock.,527.2,659.0,,,True,Agustin Alvarez 261,La Anonima,9 de Julio,S.A. Importadora y Exportadora de la Patagonia,2,LA MERCED,Yerba Mate Campo Origen Controlado La Merced 500 Gr,500.0 gr,2022-08-24,Cluster 3
1075825,1075825,sucursales,1,-50.01614,-68.5193,PUERTO SANTA CRUZ,7790387015607,Supermercado,AR-Z,20% de descuento con cualquier medio de pago - Vigencia: Desde el 24/08/2022 Hasta el 04/09/2022 - Stock: Hasta agotar stock.,567.2,709.0,,,True,San Martin 135,La Anonima,Puerto Santa Cruz,S.A. Importadora y Exportadora de la Patagonia,2,LA MERCED,Yerba Mate Campo Origen Controlado La Merced 500 Gr,500.0 gr,2022-08-24,Cluster 3
1075826,1075826,sucursales,1,-32.7,-62.09501,MARCOS JUAREZ,7790387015607,Supermercado,AR-X,20% de descuento con cualquier medio de pago - Vigencia: Desde el 24/08/2022 Hasta el 04/09/2022 - Stock: Hasta agotar stock.,527.2,659.0,,,True,Bv. Lardizabal 250,La Anonima,Marcos Juares,S.A. Importadora y Exportadora de la Patagonia,2,LA MERCED,Yerba Mate Campo Origen Controlado La Merced 500 Gr,500.0 gr,2022-08-24,Cluster 3
1075827,1075827,sucursales,1,-38.82896,-68.07058,CINCO SALTOS,7790387015607,Supermercado,AR-R,20% de descuento con cualquier medio de pago - Vigencia: Desde el 24/08/2022 Hasta el 04/09/2022 - Stock: Hasta agotar stock.,527.2,659.0,,,True,Ameghino 1097,La Anonima,Cinco Saltos,S.A. Importadora y Exportadora de la Patagonia,2,LA MERCED,Yerba Mate Campo Origen Controlado La Merced 500 Gr,500.0 gr,2022-08-24,Cluster 3
1075828,1075828,sucursales,1,-38.3531,-68.7925,ANELO,7790387015607,Supermercado,AR-Q,20% de descuento con cualquier medio de pago - Vigencia: Desde el 24/08/2022 Hasta el 04/09/2022 - Stock: Hasta agotar stock.,567.2,709.0,,,True,Calle Nro. 12 1185,La Anonima,Aguada San Roque,S.A. Importadora y Exportadora de la Patagonia,2,LA MERCED,Yerba Mate Campo Origen Controlado La Merced 500 Gr,500.0 gr,2022-08-24,Cluster 3
1075829,1075829,sucursales,1,-31.42026,-63.06375,ARROYITO,7790387015607,Supermercado,AR-X,20% de descuento con cualquier medio de pago - Vigencia: Desde el 24/08/2022 Hasta el 04/09/2022 - Stock: Hasta agotar stock.,527.2,659.0,,,True,Espacio Cultural Lafaye 640,La Anonima,Arroyito,S.A. Importadora y Exportadora de la Patagonia,2,LA MERCED,Yerba Mate Campo Origen Controlado La Merced 500 Gr,500.0 gr,2022-08-24,Cluster 3
1075830,1075830,sucursales,2,-38.95351,-68.0624,TOPSY 02,7790387015607,Supermercado,AR-Q,20% de descuento con cualquier medio de pago - Vigencia: Desde el 24/08/2022 Hasta el 04/09/2022 - Stock: Hasta agotar stock.,527.2,659.0,,,True,Alte. Brown 140,Topsy,Neuquen,S.A. Importadora y Exportadora de la Patagonia,2,LA MERCED,Yerba Mate Campo Origen Controlado La Merced 500 Gr,500.0 gr,2022-08-24,Cluster 3
1075831,1075831,sucursales,2,-38.93445,-69.23304,TOPSY 04,7790387015607,Supermercado,AR-Q,20% de descuento con cualquier medio de pago - Vigencia: Desde el 24/08/2022 Hasta el 04/09/2022 - Stock: Hasta agotar stock.,548.0,685.0,,,True,C.H.Rodriguez 345,Topsy,Cutral Co,S.A. Importadora y Exportadora de la Patagonia,2,LA MERCED,Yerba Mate Campo Origen Controlado La Merced 500 Gr,500.0 gr,2022-08-24,Cluster 3
1075832,1075832,sucursales,2,-38.94971,-68.11743,TOPSY 05,7790387015607,Supermercado,AR-Q,20% de descuento con cualquier medio de pago - Vigencia: Desde el 24/08/2022 Hasta el 04/09/2022 - Stock: Hasta agotar stock.,527.2,659.0,,,True,Godoy 517,Topsy,Neuquen,S.A. Importadora y Exportadora de la Patagonia,2,LA MERCED,Yerba Mate Campo Origen Controlado La Merced 500 Gr,500.0 gr,2022-08-24,Cluster 3
1075833,1075833,sucursales,2,-38.90739,-70.06733,TOPSY 06,7790387015607,Supermercado,AR-Q,20% de descuento con cualquier medio de pago - Vigencia: Desde el 24/08/2022 Hasta el 04/09/2022 - Stock: Hasta agotar stock.,548.0,685.0,,,True,Avellaneda 99,Topsy,Zapala,S.A. Importadora y Exportadora de la Patagonia,2,LA MERCED,Yerba Mate Campo Origen Controlado La Merced 500 Gr,500.0 gr,2022-08-24,Cluster 3
1075834,1075834,sucursales,2,-38.969,-68.05966,TOPSY 08,7790387015607,Supermercado,AR-Q,20% de descuento con cualquier medio de pago - Vigencia: Desde el 24/08/2022 Hasta el 04/09/2022 - Stock: Hasta agotar stock.,527.2,659.0,,,True,Av. Alascoaga Y Fava ,Topsy,Neuquen,S.A. Importadora y Exportadora de la Patagonia,2,LA MERCED,Yerba Mate Campo Origen Controlado La Merced 500 Gr,500.0 gr,2022-08-24,Cluster 3
1075835,1075835,sucursales,2,-38.95083,-68.07539,TOPSY 09,7790387015607,Supermercado,AR-Q,20% de descuento con cualquier medio de pago - Vigencia: Desde el 24/08/2022 Hasta el 04/09/2022 - Stock: Hasta agotar stock.,527.2,659.0,,,True,Belgrano 1154,Topsy,Neuquen,S.A. Importadora y Exportadora de la Patagonia,2,LA MERCED,Yerba Mate Campo Origen Controlado La Merced 500 Gr,500.0 gr,2022-08-24,Cluster 3
1075836,1075836,sucursales,2,-38.9571,-68.22889,TOPSY 10,7790387015607,Supermercado,AR-Q,20% de descuento con cualquier medio de pago - Vigencia: Desde el 24/08/2022 Hasta el 04/09/2022 - Stock: Hasta agotar stock.,527.2,659.0,,,True,Buenos Aires 179,Topsy,Plottier,S.A. Importadora y Exportadora de la Patagonia,2,LA MERCED,Yerba Mate Campo Origen Controlado La Merced 500 Gr,500.0 gr,2022-08-24,Cluster 3
1075837,1075837,sucursales,2,-38.95093,-68.03064,TOPSY 11,7790387015607,Autoservicio,AR-Q,20% de descuento con cualquier medio de pago - Vigencia: Desde el 24/08/2022 Hasta el 04/09/2022 - Stock: Hasta agotar stock.,527.2,659.0,,,True,Alderete 1985,Topsy,Neuquen,S.A. Importadora y Exportadora de la Patagonia,2,LA MERCED,Yerba Mate Campo Origen Controlado La Merced 500 Gr,500.0 gr,2022-08-24,Cluster 3
1075838,1075838,sucursales,2,-38.93856,-68.11734,TOPSY 13,7790387015607,Supermercado,AR-Q,20% de descuento con cualquier medio de pago - Vigencia: Desde el 24/08/2022 Hasta el 04/09/2022 - Stock: Hasta agotar stock.,527.2,659.0,,,True,Godoy 1450,Topsy,Neuquen,S.A. Importadora y Exportadora de la Patagonia,2,LA MERCED,Yerba Mate Campo Origen Controlado La Merced 500 Gr,500.0 gr,2022-08-24,Cluster 3
1075839,1075839,sucursales,2,-38.93301,-68.074,TOPSY 14,7790387015607,Supermercado,AR-Q,20% de descuento con cualquier medio de pago - Vigencia: Desde el 24/08/2022 Hasta el 04/09/2022 - Stock: Hasta agotar stock.,527.2,659.0,,,True,Las Orquideas 100,Topsy,Neuquen,S.A. Importadora y Exportadora de la Patagonia,2,LA MERCED,Yerba Mate Campo Origen Controlado La Merced 500 Gr,500.0 gr,2022-08-24,Cluster 3
1075840,1075840,sucursales,2,-38.93567,-67.99613,TOPSY 15,7790387015607,Supermercado,AR-R,20% de descuento con cualquier medio de pago - Vigencia: Desde el 24/08/2022 Hasta el 04/09/2022 - Stock: Hasta agotar stock.,527.2,659.0,,,True,Av. Alem 336,Topsy,Cipolletti,S.A. Importadora y Exportadora de la Patagonia,2,LA MERCED,Yerba Mate Campo Origen Controlado La Merced 500 Gr,500.0 gr,2022-08-24,Cluster 3
1075841,1075841,sucursales,2,-38.94441,-68.1023,TOPSY 16,7790387015607,Supermercado,AR-Q,20% de descuento con cualquier medio de pago - Vigencia: Desde el 24/08/2022 Hasta el 04/09/2022 - Stock: Hasta agotar stock.,527.2,659.0,,,True,Av. Del Trabajador 3115,Topsy,Neuquen,S.A. Importadora y Exportadora de la Patagonia,2,LA MERCED,Yerba Mate Campo Origen Controlado La Merced 500 Gr,500.0 gr,2022-08-24,Cluster 3
1075842,1075842,sucursales,2,-38.95066,-68.08955,TOPSY 17,7790387015607,Supermercado,AR-Q,20% de descuento con cualquier medio de pago - Vigencia: Desde el 24/08/2022 Hasta el 04/09/2022 - Stock: Hasta agotar stock.,527.2,659.0,,,True,Belgrano 2186,Topsy,Neuquen,S.A. Importadora y Exportadora de la Patagonia,2,LA MERCED,Yerba Mate Campo Origen Controlado La Merced 500 Gr,500.0 gr,2022-08-24,Cluster 3
1075843,1075843,sucursales,2,-39.02851,-67.57497,TOPSY 18,7790387015607,Supermercado,AR-R,20% de descuento con cualquier medio de pago - Vigencia: Desde el 24/08/2022 Hasta el 04/09/2022 - Stock: Hasta agotar stock.,527.2,659.0,,,True,Tucuman 747,Topsy,General Roca,S.A. Importadora y Exportadora de la Patagonia,2,LA MERCED,Yerba Mate Campo Origen Controlado La Merced 500 Gr,500.0 gr,2022-08-24,Cluster 3
1075844,1075844,sucursales,2,-38.82925,-68.06397,TOPSY 19,7790387015607,Supermercado,AR-R,20% de descuento con cualquier medio de pago - Vigencia: Desde el 24/08/2022 Hasta el 04/09/2022 - Stock: Hasta agotar stock.,527.2,659.0,,,True,General Roca 224,Topsy,Cinco Saltos,S.A. Importadora y Exportadora de la Patagonia,2,LA MERCED,Yerba Mate Campo Origen Controlado La Merced 500 Gr,500.0 gr,2022-08-24,Cluster 3
1075845,1075845,sucursales,2,-38.94856,-67.99217,TOPSY 20,7790387015607,Autoservicio,AR-R,20% de descuento con cualquier medio de pago - Vigencia: Desde el 24/08/2022 Hasta el 04/09/2022 - Stock: Hasta agotar stock.,527.2,659.0,,,True,Toschi 505,Topsy,Cipolletti,S.A. Importadora y Exportadora de la Patagonia,2,LA MERCED,Yerba Mate Campo Origen Controlado La Merced 500 Gr,500.0 gr,2022-08-24,Cluster 3
1075846,1075846,sucursales,3,-39.09875,-67.08708,BOMBA 05,7790387015607,Supermercado,AR-R,20% de descuento con cualquier medio de pago - Vigencia: Desde el 24/08/2022 Hasta el 04/09/2022 - Stock: Hasta agotar stock.,527.2,659.0,,,True,Mitre 267,Bomba,Villa Regina,S.A. Importadora y Exportadora de la Patagonia,2,LA MERCED,Yerba Mate Campo Origen Controlado La Merced 500 Gr,500.0 gr,2022-08-24,Cluster 3
1075847,1075847,sucursales,3,-38.89891,-70.07384,BOMBA 06,7790387015607,Supermercado,AR-Q,20% de descuento con cualquier medio de pago - Vigencia: Desde el 24/08/2022 Hasta el 04/09/2022 - Stock: Hasta agotar stock.,548.0,685.0,,,True,Afione 341,Bomba,Zapala,S.A. Importadora y Exportadora de la Patagonia,2,LA MERCED,Yerba Mate Campo Origen Controlado La Merced 500 Gr,500.0 gr,2022-08-24,Cluster 3
