,Unnamed: 0,key,bandera_id,lat,lng,sucursalnombre,id_,sucursaltipo,provincia,promo1_descripcion,promo1_precio,preciolista,promo2_descripcion,promo2_precio,actualizadohoy,direccion,banderadescripcion,localidad,comerciorazonsocial,comercioid,marca,nombre,presentacion,fecha,Cluster
0,0,sucursales,1,-34.6036515,-58.405234,384 - BALVANERA,7790070012050,Autoservicio,AR-C,0% de descuento. Precio Promocional Exclusivo DIA en Sucursales Indicadas Hasta Agotar Stock o Finalice Vigencia.,186.37,186.37,,,True,Av Pueyrredon 576 (Balvanera) ,Supermercados DIA,CAPITAL FEDERAL,DIA Argentina S.A,15,COCINERO,Aceite de Girasol Cocinero 900 Ml,900.0 ml,2022-08-24,Cluster 1
1,1,sucursales,1,-34.6764626,-58.4933966,386 - VILLA LUGANO,7790070012050,Autoservicio,AR-C,0% de descuento. Precio Promocional Exclusivo DIA en Sucursales Indicadas Hasta Agotar Stock o Finalice Vigencia.,186.37,186.37,,,True,Montiel 3829 (Villa Lugano) ,Supermercados DIA,CAPITAL FEDERAL,DIA Argentina S.A,15,COCINERO,Aceite de Girasol Cocinero 900 Ml,900.0 ml,2022-08-24,Cluster 1
2,2,sucursales,1,-34.6530744,-58.4814134,387 - PARQUE AVELLANEDA,7790070012050,Autoservicio,AR-C,0% de descuento. Precio Promocional Exclusivo DIA en Sucursales Indicadas Hasta Agotar Stock o Finalice Vigencia.,186.37,186.37,,,True,Av Olivera 1268 (Villa Lugano) ,Supermercados DIA,CAPITAL FEDERAL,DIA Argentina S.A,15,COCINERO,Aceite de Girasol Cocinero 900 Ml,900.0 ml,2022-08-24,Cluster 1
3,3,sucursales,1,-34.6262843,-58.4569877,389 - FLORES,7790070012050,Autoservicio,AR-C,0% de descuento. Precio Promocional Exclusivo DIA en Sucursales Indicadas Hasta Agotar Stock o Finalice Vigencia.,186.37,186.37,,,True,Av Boyaca 37 (Flores) ,Supermercados DIA,CAPITAL FEDERAL,DIA Argentina S.A,15,COCINERO,Aceite de Girasol Cocinero 900 Ml,900.0 ml,2022-08-24,Cluster 1
4,4,sucursales,1,-35.0530892,-58.7606411,39 - CAÑUELAS,7790070012050,Autoservicio,AR-B,0% de descuento. Precio Promocional Exclusivo DIA en Sucursales Indicadas Hasta Agotar Stock o Finalice Vigencia.,186.37,186.37,,,True,Cl Rivadavia 800,Supermercados DIA,BUENOS AIRES,DIA Argentina S.A,15,COCINERO,Aceite de Girasol Cocinero 900 Ml,900.0 ml,2022-08-24,Cluster 1
5,5,sucursales,1,-34.6306283,-58.4692321,390 - FLORES,7790070012050,Autoservicio,AR-C,0% de descuento. Precio Promocional Exclusivo DIA en Sucursales Indicadas Hasta Agotar Stock o Finalice Vigencia.,186.37,186.37,,,True,Av Rivadavia 7370 (Flores) ,Supermercados DIA,CAPITAL FEDERAL,DIA Argentina S.A,15,COCINERO,Aceite de Girasol Cocinero 900 Ml,900.0 ml,2022-08-24,Cluster 1
6,6,sucursales,1,-34.6182691,-58.476016,391 - VILLA SANTA RITA,7790070012050,Autoservicio,AR-C,0% de descuento. Precio Promocional Exclusivo DIA en Sucursales Indicadas Hasta Agotar Stock o Finalice Vigencia.,186.37,186.37,,,True,Avnazca(Villa Santa Rita) 1316,Supermercados DIA,CAPITAL FEDERAL,DIA Argentina S.A,15,COCINERO,Aceite de Girasol Cocinero 900 Ml,900.0 ml,2022-08-24,Cluster 1
7,7,sucursales,1,-34.607513,-58.4028388,392 - BALVANERA,7790070012050,Autoservicio,AR-C,0% de descuento. Precio Promocional Exclusivo DIA en Sucursales Indicadas Hasta Agotar Stock o Finalice Vigencia.,186.37,186.37,,,True,Tte.Gral.Juan Domingo Peron (Balvanera) 2560,Supermercados DIA,CAPITAL FEDERAL,DIA Argentina S.A,15,COCINERO,Aceite de Girasol Cocinero 900 Ml,900.0 ml,2022-08-24,Cluster 1
8,8,sucursales,1,-34.5580778,-58.4669991,393 - NÚÑEZ,7790070012050,Autoservicio,AR-C,0% de descuento. Precio Promocional Exclusivo DIA en Sucursales Indicadas Hasta Agotar Stock o Finalice Vigencia.,186.37,186.37,,,True,Av Cramer 2875 (Belgrano) ,Supermercados DIA,CAPITAL FEDERAL,DIA Argentina S.A,15,COCINERO,Aceite de Girasol Cocinero 900 Ml,900.0 ml,2022-08-24,Cluster 1
9,9,sucursales,1,-34.6273133,-58.4286401,394 - PARQUE CHACABUCO,7790070012050,Autoservicio,AR-C,0% de descuento. Precio Promocional Exclusivo DIA en Sucursales Indicadas Hasta Agotar Stock o Finalice Vigencia.,186.37,186.37,,,True,Av Directorio 134 (Caballito) ,Supermercados DIA,CAPITAL FEDERAL,DIA Argentina S.A,15,COCINERO,Aceite de Girasol Cocinero 900 Ml,900.0 ml,2022-08-24,Cluster 1
10,10,sucursales,1,-34.5795405,-58.4310392,395 - PALERMO,7790070012050,Autoservicio,AR-C,0% de descuento. Precio Promocional Exclusivo DIA en Sucursales Indicadas Hasta Agotar Stock o Finalice Vigencia.,186.37,186.37,,,True,Fitz Roy 2292 (Palermo) ,Supermercados DIA,CAPITAL FEDERAL,DIA Argentina S.A,15,COCINERO,Aceite de Girasol Cocinero 900 Ml,900.0 ml,2022-08-24,Cluster 1
11,11,sucursales,1,-34.5978334,-58.442373,396 - VILLA CRESPO,7790070012050,Autoservicio,AR-C,0% de descuento. Precio Promocional Exclusivo DIA en Sucursales Indicadas Hasta Agotar Stock o Finalice Vigencia.,186.37,186.37,,,True,Gurruchaga 431 (Villa Crespo) ,Supermercados DIA,CAPITAL FEDERAL,DIA Argentina S.A,15,COCINERO,Aceite de Girasol Cocinero 900 Ml,900.0 ml,2022-08-24,Cluster 1
12,12,sucursales,1,-34.6034002,-58.4100788,397 - BALVANERA,7790070012050,Autoservicio,AR-C,0% de descuento. Precio Promocional Exclusivo DIA en Sucursales Indicadas Hasta Agotar Stock o Finalice Vigencia.,186.37,186.37,,,True,Dr.Tomas M.De Anchorena 541 (Balvanera) ,Supermercados DIA,CAPITAL FEDERAL,DIA Argentina S.A,15,COCINERO,Aceite de Girasol Cocinero 900 Ml,900.0 ml,2022-08-24,Cluster 1
13,13,sucursales,1,-34.6369605,-58.4045551,4 - PARQUE PATRICIOS,7790070012050,Autoservicio,AR-C,0% de descuento. Precio Promocional Exclusivo DIA en Sucursales Indicadas Hasta Agotar Stock o Finalice Vigencia.,186.37,186.37,,,True,Cl Caseros 2938,Supermercados DIA,CAPITAL FEDERAL,DIA Argentina S.A,15,COCINERO,Aceite de Girasol Cocinero 900 Ml,900.0 ml,2022-08-24,Cluster 1
14,14,sucursales,1,-34.891004,-58.566485,40 - EZEIZA,7790070012050,Autoservicio,AR-B,0% de descuento. Precio Promocional Exclusivo DIA en Sucursales Indicadas Hasta Agotar Stock o Finalice Vigencia.,186.37,186.37,,,True,Cl Guillermo Gaddini 109,Supermercados DIA,BUENOS AIRES,DIA Argentina S.A,15,COCINERO,Aceite de Girasol Cocinero 900 Ml,900.0 ml,2022-08-24,Cluster 1
15,15,sucursales,1,-34.6021724,-58.3767232,400 - SAN TELMO,7790070012050,Autoservicio,AR-C,0% de descuento. Precio Promocional Exclusivo DIA en Sucursales Indicadas Hasta Agotar Stock o Finalice Vigencia.,186.37,186.37,,,True,Maipu 512(San Nicolas) ,Supermercados DIA,CAPITAL FEDERAL,DIA Argentina S.A,15,COCINERO,Aceite de Girasol Cocinero 900 Ml,900.0 ml,2022-08-24,Cluster 1
16,16,sucursales,1,-34.5733048,-58.4220692,402 - PALERMO,7790070012050,Autoservicio,AR-C,0% de descuento. Precio Promocional Exclusivo DIA en Sucursales Indicadas Hasta Agotar Stock o Finalice Vigencia.,186.37,186.37,,,True,Juan Francisco Segui 4668 ( Palermo) ,Supermercados DIA,CAPITAL FEDERAL,DIA Argentina S.A,15,COCINERO,Aceite de Girasol Cocinero 900 Ml,900.0 ml,2022-08-24,Cluster 1
17,17,sucursales,1,-34.6372315,-58.4157757,403 - BOEDO,7790070012050,Autoservicio,AR-C,0% de descuento. Precio Promocional Exclusivo DIA en Sucursales Indicadas Hasta Agotar Stock o Finalice Vigencia.,186.37,186.37,,,True,Avchiclana 3683 ( Boedo) ,Supermercados DIA,CAPITAL FEDERAL,DIA Argentina S.A,15,COCINERO,Aceite de Girasol Cocinero 900 Ml,900.0 ml,2022-08-24,Cluster 1
18,18,sucursales,1,-34.668423,-58.486858,404 - VILLA LUGANO,7790070012050,Autoservicio,AR-C,0% de descuento. Precio Promocional Exclusivo DIA en Sucursales Indicadas Hasta Agotar Stock o Finalice Vigencia.,186.37,186.37,,,True,Murguiondo 3236 ,Supermercados DIA,CAPITAL FEDERAL,DIA Argentina S.A,15,COCINERO,Aceite de Girasol Cocinero 900 Ml,900.0 ml,2022-08-24,Cluster 1
21,21,sucursales,1,-34.6440309,-58.373563,405 - BARRACAS,7790070012050,Autoservicio,AR-C,0% de descuento. Precio Promocional Exclusivo DIA en Sucursales Indicadas Hasta Agotar Stock o Finalice Vigencia.,186.37,186.37,,,True,Avmontes De Oca 1438 (Barracas) ,Supermercados DIA,CAPITAL FEDERAL,DIA Argentina S.A,15,COCINERO,Aceite de Girasol Cocinero 900 Ml,900.0 ml,2022-08-24,Cluster 1
22,22,sucursales,1,-34.5637332,-58.4567305,407 - NÚÑEZ,7790070012050,Autoservicio,AR-C,0% de descuento. Precio Promocional Exclusivo DIA en Sucursales Indicadas Hasta Agotar Stock o Finalice Vigencia.,186.37,186.37,,,True,Ciudad De La Paz 1984 (Belgrano) ,Supermercados DIA,CAPITAL FEDERAL,DIA Argentina S.A,15,COCINERO,Aceite de Girasol Cocinero 900 Ml,900.0 ml,2022-08-24,Cluster 1
23,23,sucursales,1,-34.5905692,-58.4244299,408 - PALERMO,7790070012050,Autoservicio,AR-C,0% de descuento. Precio Promocional Exclusivo DIA en Sucursales Indicadas Hasta Agotar Stock o Finalice Vigencia.,186.37,186.37,,,True,Av Raul Scalabrini Ortiz 1647 (Palermo) ,Supermercados DIA,CAPITAL FEDERAL,DIA Argentina S.A,15,COCINERO,Aceite de Girasol Cocinero 900 Ml,900.0 ml,2022-08-24,Cluster 1
24,24,sucursales,1,-34.6299045,-58.3891921,409 - FLORES,7790070012050,Autoservicio,AR-C,0% de descuento. Precio Promocional Exclusivo DIA en Sucursales Indicadas Hasta Agotar Stock o Finalice Vigencia.,186.37,186.37,,,True,Jose Bonifacio 1773 (Flores) ,Supermercados DIA,CAPITAL FEDERAL,DIA Argentina S.A,15,COCINERO,Aceite de Girasol Cocinero 900 Ml,900.0 ml,2022-08-24,Cluster 1
25,25,sucursales,1,-34.8702073,-57.8808734,41 - BERISSO,7790070012050,Autoservicio,AR-B,0% de descuento. Precio Promocional Exclusivo DIA en Sucursales Indicadas Hasta Agotar Stock o Finalice Vigencia.,186.37,186.37,,,True,Cl Montevideo 1020,Supermercados DIA,BUENOS AIRES,DIA Argentina S.A,15,COCINERO,Aceite de Girasol Cocinero 900 Ml,900.0 ml,2022-08-24,Cluster 1
26,26,sucursales,1,-34.6119685,-58.5279779,410 - VILLA DEVOTO,7790070012050,Autoservicio,AR-C,0% de descuento. Precio Promocional Exclusivo DIA en Sucursales Indicadas Hasta Agotar Stock o Finalice Vigencia.,186.37,186.37,,,True,Av Lope De Vega 3472 ( Villa Devoto) ,Supermercados DIA,CAPITAL FEDERAL,DIA Argentina S.A,15,COCINERO,Aceite de Girasol Cocinero 900 Ml,900.0 ml,2022-08-24,Cluster 1
27,27,sucursales,1,-34.6467684,-58.5140065,411 - LINIERS,7790070012050,Autoservicio,AR-C,0% de descuento. Precio Promocional Exclusivo DIA en Sucursales Indicadas Hasta Agotar Stock o Finalice Vigencia.,186.37,186.37,,,True,Patron 6273 ( Liniers) ,Supermercados DIA,CAPITAL FEDERAL,DIA Argentina S.A,15,COCINERO,Aceite de Girasol Cocinero 900 Ml,900.0 ml,2022-08-24,Cluster 1
28,28,sucursales,1,-34.5727565,-58.4883282,412 - VILLA URQUIZA,7790070012050,Autoservicio,AR-C,0% de descuento. Precio Promocional Exclusivo DIA en Sucursales Indicadas Hasta Agotar Stock o Finalice Vigencia.,186.37,186.37,,,True,Av Triunvirato 4933 ( Villa Urquiza) ,Supermercados DIA,CAPITAL FEDERAL,DIA Argentina S.A,15,COCINERO,Aceite de Girasol Cocinero 900 Ml,900.0 ml,2022-08-24,Cluster 1
29,29,sucursales,1,-34.5585404,-58.4603022,413 - NÚÑEZ,7790070012050,Autoservicio,AR-C,0% de descuento. Precio Promocional Exclusivo DIA en Sucursales Indicadas Hasta Agotar Stock o Finalice Vigencia.,186.37,186.37,,,True,Av Monroe 2442 (Belgrano) ,Supermercados DIA,CAPITAL FEDERAL,DIA Argentina S.A,15,COCINERO,Aceite de Girasol Cocinero 900 Ml,900.0 ml,2022-08-24,Cluster 1
30,30,sucursales,1,-34.577198,-58.4599651,414 - COLEGIALES,7790070012050,Autoservicio,AR-C,0% de descuento. Precio Promocional Exclusivo DIA en Sucursales Indicadas Hasta Agotar Stock o Finalice Vigencia.,186.37,186.37,,,True,Av Elcano 3521 (Colegiales) ,Supermercados DIA,CAPITAL FEDERAL,DIA Argentina S.A,15,COCINERO,Aceite de Girasol Cocinero 900 Ml,900.0 ml,2022-08-24,Cluster 1
31,31,sucursales,1,-34.5976686,-58.3781834,415 - RETIRO,7790070012050,Autoservicio,AR-C,0% de descuento. Precio Promocional Exclusivo DIA en Sucursales Indicadas Hasta Agotar Stock o Finalice Vigencia.,186.37,186.37,,,True,Paraguay 788 (Retiro) ,Supermercados DIA,CAPITAL FEDERAL,DIA Argentina S.A,15,COCINERO,Aceite de Girasol Cocinero 900 Ml,900.0 ml,2022-08-24,Cluster 1
32,32,sucursales,1,-34.5672438,-58.4502161,417 - COLEGIALES,7790070012050,Autoservicio,AR-C,0% de descuento. Precio Promocional Exclusivo DIA en Sucursales Indicadas Hasta Agotar Stock o Finalice Vigencia.,186.37,186.37,,,True,Av Cabildo 1426 (Colegiales) ,Supermercados DIA,CAPITAL FEDERAL,DIA Argentina S.A,15,COCINERO,Aceite de Girasol Cocinero 900 Ml,900.0 ml,2022-08-24,Cluster 1
33,33,sucursales,1,-34.5830372,-58.476676,418 - PARQUE CHAS,7790070012050,Autoservicio,AR-C,0% de descuento. Precio Promocional Exclusivo DIA en Sucursales Indicadas Hasta Agotar Stock o Finalice Vigencia.,186.37,186.37,,,True,Av De Los Incas 4701 (Parque Chas) ,Supermercados DIA,CAPITAL FEDERAL,DIA Argentina S.A,15,COCINERO,Aceite de Girasol Cocinero 900 Ml,900.0 ml,2022-08-24,Cluster 1
34,34,sucursales,1,-34.6178053,-58.5020885,42 - VERSALLES,7790070012050,Autoservicio,AR-C,0% de descuento. Precio Promocional Exclusivo DIA en Sucursales Indicadas Hasta Agotar Stock o Finalice Vigencia.,186.37,186.37,,,True,Cl Alvarez Jonte 4471,Supermercados DIA,CAPITAL FEDERAL,DIA Argentina S.A,15,COCINERO,Aceite de Girasol Cocinero 900 Ml,900.0 ml,2022-08-24,Cluster 1
35,35,sucursales,1,-34.583693,-58.4675266,420 - VILLA ORTÚZAR,7790070012050,Autoservicio,AR-C,0% de descuento. Precio Promocional Exclusivo DIA en Sucursales Indicadas Hasta Agotar Stock o Finalice Vigencia.,186.37,186.37,,,True,Avtriunvirato 3217 ( Villa Ortuza) ,Supermercados DIA,CAPITAL FEDERAL,DIA Argentina S.A,15,COCINERO,Aceite de Girasol Cocinero 900 Ml,900.0 ml,2022-08-24,Cluster 1
36,36,sucursales,1,-34.6136307,-58.3746625,421 - MONSERRAT,7790070012050,Autoservicio,AR-C,0% de descuento. Precio Promocional Exclusivo DIA en Sucursales Indicadas Hasta Agotar Stock o Finalice Vigencia.,186.37,186.37,,,True,Peru 486 ( Monserrat) ,Supermercados DIA,CAPITAL FEDERAL,DIA Argentina S.A,15,COCINERO,Aceite de Girasol Cocinero 900 Ml,900.0 ml,2022-08-24,Cluster 1
37,37,sucursales,1,-34.6298967,-58.4954224,422 - VÉLEZ SÁRSFIELD,7790070012050,Autoservicio,AR-C,0% de descuento. Precio Promocional Exclusivo DIA en Sucursales Indicadas Hasta Agotar Stock o Finalice Vigencia.,186.37,186.37,,,True,Av Justo Doctor Juan Bautista 7533/37/43 (V.Sarfield) ,Supermercados DIA,CAPITAL FEDERAL,DIA Argentina S.A,15,COCINERO,Aceite de Girasol Cocinero 900 Ml,900.0 ml,2022-08-24,Cluster 1
38,38,sucursales,1,-34.5861248,-58.442219,424 - PALERMO,7790070012050,Autoservicio,AR-C,0% de descuento. Precio Promocional Exclusivo DIA en Sucursales Indicadas Hasta Agotar Stock o Finalice Vigencia.,186.37,186.37,,,True,Av Cordoba 5799 (Palermo) ,Supermercados DIA,CAPITAL FEDERAL,DIA Argentina S.A,15,COCINERO,Aceite de Girasol Cocinero 900 Ml,900.0 ml,2022-08-24,Cluster 1
39,39,sucursales,1,-34.5827139,-58.4360493,427 - PALERMO,7790070012050,Autoservicio,AR-C,0% de descuento. Precio Promocional Exclusivo DIA en Sucursales Indicadas Hasta Agotar Stock o Finalice Vigencia.,186.37,186.37,,,True,El Salvador 5675 (Palermo) ,Supermercados DIA,CAPITAL FEDERAL,DIA Argentina S.A,15,COCINERO,Aceite de Girasol Cocinero 900 Ml,900.0 ml,2022-08-24,Cluster 1
41,41,sucursales,1,-34.56768,-58.4428269,428 - PALERMO,7790070012050,Autoservicio,AR-C,0% de descuento. Precio Promocional Exclusivo DIA en Sucursales Indicadas Hasta Agotar Stock o Finalice Vigencia.,186.37,186.37,,,True,Av Federico Lacroze 2178 (Palermo) ,Supermercados DIA,CAPITAL FEDERAL,DIA Argentina S.A,15,COCINERO,Aceite de Girasol Cocinero 900 Ml,900.0 ml,2022-08-24,Cluster 1
42,42,sucursales,1,-34.659422,-58.476611,429 - VILLA LUGANO,7790070012050,Autoservicio,AR-C,0% de descuento. Precio Promocional Exclusivo DIA en Sucursales Indicadas Hasta Agotar Stock o Finalice Vigencia.,186.37,186.37,,,True,Av Escalada 2341 (Villa Lugano) ,Supermercados DIA,CAPITAL FEDERAL,DIA Argentina S.A,15,COCINERO,Aceite de Girasol Cocinero 900 Ml,900.0 ml,2022-08-24,Cluster 1
43,43,sucursales,1,-34.8742082,-57.8678337,43 - BERISSO,7790070012050,Autoservicio,AR-B,0% de descuento. Precio Promocional Exclusivo DIA en Sucursales Indicadas Hasta Agotar Stock o Finalice Vigencia.,186.37,186.37,,,True,Cl Montevideo 2181,Supermercados DIA,BUENOS AIRES,DIA Argentina S.A,15,COCINERO,Aceite de Girasol Cocinero 900 Ml,900.0 ml,2022-08-24,Cluster 1
44,44,sucursales,1,-34.55308,-58.48897,430 - NÚÑEZ,7790070012050,Autoservicio,AR-C,0% de descuento. Precio Promocional Exclusivo DIA en Sucursales Indicadas Hasta Agotar Stock o Finalice Vigencia.,186.37,186.37,,,True,Av Libertador 6144 (Belgrano) ,Supermercados DIA,CAPITAL FEDERAL,DIA Argentina S.A,15,COCINERO,Aceite de Girasol Cocinero 900 Ml,900.0 ml,2022-08-24,Cluster 1
45,45,sucursales,1,-34.600968,-58.435513,431 - VILLA CRESPO,7790070012050,Autoservicio,AR-C,0% de descuento. Precio Promocional Exclusivo DIA en Sucursales Indicadas Hasta Agotar Stock o Finalice Vigencia.,186.37,186.37,,,True,Av Corrientes 4938 (Villa Crespo) ,Supermercados DIA,CAPITAL FEDERAL,DIA Argentina S.A,15,COCINERO,Aceite de Girasol Cocinero 900 Ml,900.0 ml,2022-08-24,Cluster 1
46,46,sucursales,1,-34.5716404,-58.4831992,435 - VILLA URQUIZA,7790070012050,Autoservicio,AR-C,0% de descuento. Precio Promocional Exclusivo DIA en Sucursales Indicadas Hasta Agotar Stock o Finalice Vigencia.,186.37,186.37,,,True,Av Alvarez Thomas 3210 (Villa Urquiza) ,Supermercados DIA,CAPITAL FEDERAL,DIA Argentina S.A,15,COCINERO,Aceite de Girasol Cocinero 900 Ml,900.0 ml,2022-08-24,Cluster 1
47,47,sucursales,1,-34.612793,-58.42542,436 - ALMAGRO,7790070012050,Autoservicio,AR-C,0% de descuento. Precio Promocional Exclusivo DIA en Sucursales Indicadas Hasta Agotar Stock o Finalice Vigencia.,186.37,186.37,,,True,Rawson 26 (Almagro) ,Supermercados DIA,CAPITAL FEDERAL,DIA Argentina S.A,15,COCINERO,Aceite de Girasol Cocinero 900 Ml,900.0 ml,2022-08-24,Cluster 1
48,48,sucursales,1,-34.609441,-58.386606,439 - MONSERRAT,7790070012050,Autoservicio,AR-C,0% de descuento. Precio Promocional Exclusivo DIA en Sucursales Indicadas Hasta Agotar Stock o Finalice Vigencia.,186.37,186.37,,,True,Av De Mayo 1431 (Monserrat) ,Supermercados DIA,CAPITAL FEDERAL,DIA Argentina S.A,15,COCINERO,Aceite de Girasol Cocinero 900 Ml,900.0 ml,2022-08-24,Cluster 1
49,49,sucursales,1,-34.6673153,-58.5306422,44 - LOMAS DEL MIRADOR,7790070012050,Autoservicio,AR-B,0% de descuento. Precio Promocional Exclusivo DIA en Sucursales Indicadas Hasta Agotar Stock o Finalice Vigencia.,186.37,186.37,,,True,Cl Bri.Grl Don J.M.De Rosas 945,Supermercados DIA,BUENOS AIRES,DIA Argentina S.A,15,COCINERO,Aceite de Girasol Cocinero 900 Ml,900.0 ml,2022-08-24,Cluster 1
50,50,sucursales,1,-34.603357,-58.418825,440 - ALMAGRO,7790070012050,Autoservicio,AR-C,0% de descuento. Precio Promocional Exclusivo DIA en Sucursales Indicadas Hasta Agotar Stock o Finalice Vigencia.,186.37,186.37,,,True,Av Corrientes 3853 (Almagro) ,Supermercados DIA,CAPITAL FEDERAL,DIA Argentina S.A,15,COCINERO,Aceite de Girasol Cocinero 900 Ml,900.0 ml,2022-08-24,Cluster 1
51,51,sucursales,1,-36.777248,-59.088369,441 - RAUCH,7790070012050,Autoservicio,AR-B,0% de descuento. Precio Promocional Exclusivo DIA en Sucursales Indicadas Hasta Agotar Stock o Finalice Vigencia.,186.37,186.37,,,True,Coronel Suarez 150,Supermercados DIA,BUENOS AIRES,DIA Argentina S.A,15,COCINERO,Aceite de Girasol Cocinero 900 Ml,900.0 ml,2022-08-24,Cluster 1
52,52,sucursales,1,-34.6117242,-58.4332766,446 - CABALLITO,7790070012050,Autoservicio,AR-C,0% de descuento. Precio Promocional Exclusivo DIA en Sucursales Indicadas Hasta Agotar Stock o Finalice Vigencia.,186.37,186.37,,,True,Otamendi 443 (Caballito) ,Supermercados DIA,CAPITAL FEDERAL,DIA Argentina S.A,15,COCINERO,Aceite de Girasol Cocinero 900 Ml,900.0 ml,2022-08-24,Cluster 1
53,53,sucursales,1,-34.6510531,-58.4911522,447 - MATADEROS,7790070012050,Autoservicio,AR-C,0% de descuento. Precio Promocional Exclusivo DIA en Sucursales Indicadas Hasta Agotar Stock o Finalice Vigencia.,186.37,186.37,,,True,Avdirectorio 5024 (Mataderos) ,Supermercados DIA,CAPITAL FEDERAL,DIA Argentina S.A,15,COCINERO,Aceite de Girasol Cocinero 900 Ml,900.0 ml,2022-08-24,Cluster 1
54,54,sucursales,1,-34.6333148,-58.4273412,448 - BOEDO,7790070012050,Autoservicio,AR-C,0% de descuento. Precio Promocional Exclusivo DIA en Sucursales Indicadas Hasta Agotar Stock o Finalice Vigencia.,186.37,186.37,,,True,Av La Plata 1570 (Boedo) ,Supermercados DIA,CAPITAL FEDERAL,DIA Argentina S.A,15,COCINERO,Aceite de Girasol Cocinero 900 Ml,900.0 ml,2022-08-24,Cluster 1
55,55,sucursales,1,-34.650879,-58.5153128,45 - MATADEROS,7790070012050,Autoservicio,AR-C,0% de descuento. Precio Promocional Exclusivo DIA en Sucursales Indicadas Hasta Agotar Stock o Finalice Vigencia.,186.37,186.37,,,True,Cl Lisandro De La Torre 1151,Supermercados DIA,CAPITAL FEDERAL,DIA Argentina S.A,15,COCINERO,Aceite de Girasol Cocinero 900 Ml,900.0 ml,2022-08-24,Cluster 1
56,56,sucursales,1,-34.5643568,-58.4399389,451 - PALERMO,7790070012050,Autoservicio,AR-C,0% de descuento. Precio Promocional Exclusivo DIA en Sucursales Indicadas Hasta Agotar Stock o Finalice Vigencia.,186.37,186.37,,,True,Soldado De La Independencia 1236 (Palermo) ,Supermercados DIA,CAPITAL FEDERAL,DIA Argentina S.A,15,COCINERO,Aceite de Girasol Cocinero 900 Ml,900.0 ml,2022-08-24,Cluster 1
57,57,sucursales,1,-37.449135,-57.72747,452 - CORONEL VIDAL,7790070012050,Autoservicio,AR-B,0% de descuento. Precio Promocional Exclusivo DIA en Sucursales Indicadas Hasta Agotar Stock o Finalice Vigencia.,186.37,186.37,,,True,Av Avellaneda 110 ,Supermercados DIA,BUENOS AIRES,DIA Argentina S.A,15,COCINERO,Aceite de Girasol Cocinero 900 Ml,900.0 ml,2022-08-24,Cluster 1
58,58,sucursales,1,-34.6047958,-58.3783133,454 - PARQUE CHACABUCO,7790070012050,Autoservicio,AR-C,0% de descuento. Precio Promocional Exclusivo DIA en Sucursales Indicadas Hasta Agotar Stock o Finalice Vigencia.,186.37,186.37,,,True,Sarmiento 814 ( San Nicolas) ,Supermercados DIA,CAPITAL FEDERAL,DIA Argentina S.A,15,COCINERO,Aceite de Girasol Cocinero 900 Ml,900.0 ml,2022-08-24,Cluster 1
59,59,sucursales,1,-34.6016761,-58.3971054,455 - FLORES,7790070012050,Autoservicio,AR-C,0% de descuento. Precio Promocional Exclusivo DIA en Sucursales Indicadas Hasta Agotar Stock o Finalice Vigencia.,186.37,186.37,,,True,Junin 638 ( Balvanera) ,Supermercados DIA,CAPITAL FEDERAL,DIA Argentina S.A,15,COCINERO,Aceite de Girasol Cocinero 900 Ml,900.0 ml,2022-08-24,Cluster 1
60,60,sucursales,1,-34.6416461,-58.4887571,456 - VILLA LURO,7790070012050,Autoservicio,AR-C,0% de descuento. Precio Promocional Exclusivo DIA en Sucursales Indicadas Hasta Agotar Stock o Finalice Vigencia.,186.37,186.37,,,True,Av Juan B. Alberdi 4459 (Villa Luro) ,Supermercados DIA,CAPITAL FEDERAL,DIA Argentina S.A,15,COCINERO,Aceite de Girasol Cocinero 900 Ml,900.0 ml,2022-08-24,Cluster 1
107,107,sucursales,1,-34.6550838,-58.4959797,457 - MATADEROS,7790070012050,Autoservicio,AR-C,0% de descuento. Precio Promocional Exclusivo DIA en Sucursales Indicadas Hasta Agotar Stock o Finalice Vigencia.,186.37,186.37,,,True,Av Directorio 5640 ( Mataderos) ,Supermercados DIA,CAPITAL FEDERAL,DIA Argentina S.A,15,COCINERO,Aceite de Girasol Cocinero 900 Ml,900.0 ml,2022-08-24,Cluster 1
108,108,sucursales,1,-34.575674,-58.4519034,459 - COLEGIALES,7790070012050,Autoservicio,AR-C,0% de descuento. Precio Promocional Exclusivo DIA en Sucursales Indicadas Hasta Agotar Stock o Finalice Vigencia.,186.37,186.37,,,True,Cap. Gral. Ramon Freire 954 (Colegiales) ,Supermercados DIA,CAPITAL FEDERAL,DIA Argentina S.A,15,COCINERO,Aceite de Girasol Cocinero 900 Ml,900.0 ml,2022-08-24,Cluster 1
109,109,sucursales,1,-34.6524097,-58.5033599,46 - MATADEROS,7790070012050,Autoservicio,AR-C,0% de descuento. Precio Promocional Exclusivo DIA en Sucursales Indicadas Hasta Agotar Stock o Finalice Vigencia.,186.37,186.37,,,True,Cl Juan Bautista Alberdi 5925,Supermercados DIA,CAPITAL FEDERAL,DIA Argentina S.A,15,COCINERO,Aceite de Girasol Cocinero 900 Ml,900.0 ml,2022-08-24,Cluster 1
110,110,sucursales,1,-34.6227658,-58.4965228,461 - FLORESTA,7790070012050,Autoservicio,AR-C,0% de descuento. Precio Promocional Exclusivo DIA en Sucursales Indicadas Hasta Agotar Stock o Finalice Vigencia.,186.37,186.37,,,True,Av Segurola 1438 (Floresta) ,Supermercados DIA,CAPITAL FEDERAL,DIA Argentina S.A,15,COCINERO,Aceite de Girasol Cocinero 900 Ml,900.0 ml,2022-08-24,Cluster 1
111,111,sucursales,1,-34.6175785,-58.3779568,463 - CONSTITUCIÓN,7790070012050,Autoservicio,AR-C,0% de descuento. Precio Promocional Exclusivo DIA en Sucursales Indicadas Hasta Agotar Stock o Finalice Vigencia.,186.37,186.37,,,True,Av Independencia 838/840 (Constitucion) ,Supermercados DIA,CAPITAL FEDERAL,DIA Argentina S.A,15,COCINERO,Aceite de Girasol Cocinero 900 Ml,900.0 ml,2022-08-24,Cluster 1
112,112,sucursales,1,-34.5998484,-58.3796545,464 - MONSERRAT,7790070012050,Autoservicio,AR-C,0% de descuento. Precio Promocional Exclusivo DIA en Sucursales Indicadas Hasta Agotar Stock o Finalice Vigencia.,186.37,186.37,,,True,Suipacha 715/719/723/729 ( San Nicolas) ,Supermercados DIA,CAPITAL FEDERAL,DIA Argentina S.A,15,COCINERO,Aceite de Girasol Cocinero 900 Ml,900.0 ml,2022-08-24,Cluster 1
113,113,sucursales,1,-34.6008689,-58.3731891,465 - RETIRO,7790070012050,Autoservicio,AR-C,0% de descuento. Precio Promocional Exclusivo DIA en Sucursales Indicadas Hasta Agotar Stock o Finalice Vigencia.,186.37,186.37,,,True,Cl Tucuman 439 ,Supermercados DIA,CAPITAL FEDERAL,DIA Argentina S.A,15,COCINERO,Aceite de Girasol Cocinero 900 Ml,900.0 ml,2022-08-24,Cluster 1
114,114,sucursales,1,-34.5878485,-58.4270195,466 - PALERMO,7790070012050,Autoservicio,AR-C,0% de descuento. Precio Promocional Exclusivo DIA en Sucursales Indicadas Hasta Agotar Stock o Finalice Vigencia.,186.37,186.37,,,True,Gurruchaga 1824 (Palermo) ,Supermercados DIA,CAPITAL FEDERAL,DIA Argentina S.A,15,COCINERO,Aceite de Girasol Cocinero 900 Ml,900.0 ml,2022-08-24,Cluster 1
115,115,sucursales,1,-34.5701559,-58.4501603,467 - COLEGIALES,7790070012050,Autoservicio,AR-C,0% de descuento. Precio Promocional Exclusivo DIA en Sucursales Indicadas Hasta Agotar Stock o Finalice Vigencia.,186.37,186.37,,,True,Amenabar 1145 (Colegiales) ,Supermercados DIA,CAPITAL FEDERAL,DIA Argentina S.A,15,COCINERO,Aceite de Girasol Cocinero 900 Ml,900.0 ml,2022-08-24,Cluster 1
116,116,sucursales,1,-34.5814348,-58.4429618,468 - PALERMO,7790070012050,Autoservicio,AR-C,0% de descuento. Precio Promocional Exclusivo DIA en Sucursales Indicadas Hasta Agotar Stock o Finalice Vigencia.,186.37,186.37,,,True,Av Dorrego 1747 (Palermo) ,Supermercados DIA,CAPITAL FEDERAL,DIA Argentina S.A,15,COCINERO,Aceite de Girasol Cocinero 900 Ml,900.0 ml,2022-08-24,Cluster 1
117,117,sucursales,1,-34.668003,-58.5068737,469 - MATADEROS,7790070012050,Autoservicio,AR-C,0% de descuento. Precio Promocional Exclusivo DIA en Sucursales Indicadas Hasta Agotar Stock o Finalice Vigencia.,186.37,186.37,,,True,Avde Los Corrales 7325 (Mataderos) ,Supermercados DIA,CAPITAL FEDERAL,DIA Argentina S.A,15,COCINERO,Aceite de Girasol Cocinero 900 Ml,900.0 ml,2022-08-24,Cluster 1
118,118,sucursales,1,-34.6760405,-58.47618,47 - VILLA LUGANO,7790070012050,Autoservicio,AR-C,0% de descuento. Precio Promocional Exclusivo DIA en Sucursales Indicadas Hasta Agotar Stock o Finalice Vigencia.,186.37,186.37,,,True,Cl Somellera 5663,Supermercados DIA,CAPITAL FEDERAL,DIA Argentina S.A,15,COCINERO,Aceite de Girasol Cocinero 900 Ml,900.0 ml,2022-08-24,Cluster 1
119,119,sucursales,1,-34.6081269,-58.3760198,470 - MONSERRAT,7790070012050,Autoservicio,AR-C,0% de descuento. Precio Promocional Exclusivo DIA en Sucursales Indicadas Hasta Agotar Stock o Finalice Vigencia.,186.37,186.37,,,True,Av Rivadavia 674 (San Nicolas) ,Supermercados DIA,CAPITAL FEDERAL,DIA Argentina S.A,15,COCINERO,Aceite de Girasol Cocinero 900 Ml,900.0 ml,2022-08-24,Cluster 1
120,120,sucursales,1,-34.6020171,-58.4686955,473 - VILLA GENERAL MITRE,7790070012050,Autoservicio,AR-C,0% de descuento. Precio Promocional Exclusivo DIA en Sucursales Indicadas Hasta Agotar Stock o Finalice Vigencia.,186.37,186.37,,,True,Av San Martin 3172/74/80(Villa Gral.Mitre) ,Supermercados DIA,CAPITAL FEDERAL,DIA Argentina S.A,15,COCINERO,Aceite de Girasol Cocinero 900 Ml,900.0 ml,2022-08-24,Cluster 1
121,121,sucursales,1,-34.6006324,-58.3886005,474 - MONSERRAT,7790070012050,Autoservicio,AR-C,0% de descuento. Precio Promocional Exclusivo DIA en Sucursales Indicadas Hasta Agotar Stock o Finalice Vigencia.,186.37,186.37,,,True,Cl Viamonte 1535 ( San Nicolas) ,Supermercados DIA,CAPITAL FEDERAL,DIA Argentina S.A,15,COCINERO,Aceite de Girasol Cocinero 900 Ml,900.0 ml,2022-08-24,Cluster 1
122,122,sucursales,1,-34.6071505,-58.4484476,475 - RETIRO,7790070012050,Autoservicio,AR-C,0% de descuento. Precio Promocional Exclusivo DIA en Sucursales Indicadas Hasta Agotar Stock o Finalice Vigencia.,186.37,186.37,,,True,Av San Martin 1372 (Caballito) ,Supermercados DIA,CAPITAL FEDERAL,DIA Argentina S.A,15,COCINERO,Aceite de Girasol Cocinero 900 Ml,900.0 ml,2022-08-24,Cluster 1
123,123,sucursales,1,-34.606897,-58.3937157,477 - LA PATERNAL,7790070012050,Autoservicio,AR-C,0% de descuento. Precio Promocional Exclusivo DIA en Sucursales Indicadas Hasta Agotar Stock o Finalice Vigencia.,186.37,186.37,,,True,Tte.Gral.Juan D.Peron 1901 (Balvanera) ,Supermercados DIA,CAPITAL FEDERAL,DIA Argentina S.A,15,COCINERO,Aceite de Girasol Cocinero 900 Ml,900.0 ml,2022-08-24,Cluster 1
124,124,sucursales,1,-34.5893691,-58.4462919,478 - CHACARITA,7790070012050,Autoservicio,AR-C,0% de descuento. Precio Promocional Exclusivo DIA en Sucursales Indicadas Hasta Agotar Stock o Finalice Vigencia.,186.37,186.37,,,True,Av Dorrego 1034/36 (Chacarita) ,Supermercados DIA,CAPITAL FEDERAL,DIA Argentina S.A,15,COCINERO,Aceite de Girasol Cocinero 900 Ml,900.0 ml,2022-08-24,Cluster 1
125,125,sucursales,1,-34.5768964,-58.475887,479 - VILLA URQUIZA,7790070012050,Autoservicio,AR-C,0% de descuento. Precio Promocional Exclusivo DIA en Sucursales Indicadas Hasta Agotar Stock o Finalice Vigencia.,186.37,186.37,,,True,Cl Alvarez Thomas 2423 (Villa Urquiza) ,Supermercados DIA,CAPITAL FEDERAL,DIA Argentina S.A,15,COCINERO,Aceite de Girasol Cocinero 900 Ml,900.0 ml,2022-08-24,Cluster 1
126,126,sucursales,1,-34.567026,-59.111166,48 - LUJAN,7790070012050,Autoservicio,AR-B,0% de descuento. Precio Promocional Exclusivo DIA en Sucursales Indicadas Hasta Agotar Stock o Finalice Vigencia.,186.37,186.37,,,True,Cl Humberto Primero 1000,Supermercados DIA,BUENOS AIRES,DIA Argentina S.A,15,COCINERO,Aceite de Girasol Cocinero 900 Ml,900.0 ml,2022-08-24,Cluster 1
127,127,sucursales,1,-34.5521177,-58.4984145,480 - SAAVEDRA,7790070012050,Autoservicio,AR-C,0% de descuento. Precio Promocional Exclusivo DIA en Sucursales Indicadas Hasta Agotar Stock o Finalice Vigencia.,186.37,186.37,,,True,Av Dr. Ricardo Balbin 4881 (Saavedra) ,Supermercados DIA,CAPITAL FEDERAL,DIA Argentina S.A,15,COCINERO,Aceite de Girasol Cocinero 900 Ml,900.0 ml,2022-08-24,Cluster 1
128,128,sucursales,1,-34.6094575,-58.3961317,481 - BALVANERA,7790070012050,Autoservicio,AR-C,0% de descuento. Precio Promocional Exclusivo DIA en Sucursales Indicadas Hasta Agotar Stock o Finalice Vigencia.,186.37,186.37,,,True,Av Rivadavia 2089 (Balvanera) ,Supermercados DIA,CAPITAL FEDERAL,DIA Argentina S.A,15,COCINERO,Aceite de Girasol Cocinero 900 Ml,900.0 ml,2022-08-24,Cluster 1
129,129,sucursales,1,-34.5955928,-58.432102,482 - VILLA CRESPO,7790070012050,Autoservicio,AR-C,0% de descuento. Precio Promocional Exclusivo DIA en Sucursales Indicadas Hasta Agotar Stock o Finalice Vigencia.,186.37,186.37,,,True,Av Scalabrini Ortiz 918 (Villa Crespo) ,Supermercados DIA,CAPITAL FEDERAL,DIA Argentina S.A,15,COCINERO,Aceite de Girasol Cocinero 900 Ml,900.0 ml,2022-08-24,Cluster 1
130,130,sucursales,1,-34.6034242,-58.3634962,484 - PUERTO MADERO,7790070012050,Autoservicio,AR-C,0% de descuento. Precio Promocional Exclusivo DIA en Sucursales Indicadas Hasta Agotar Stock o Finalice Vigencia.,186.37,186.37,,,True,Juana Manso 530 (Puerto Madero) ,Supermercados DIA,CAPITAL FEDERAL,DIA Argentina S.A,15,COCINERO,Aceite de Girasol Cocinero 900 Ml,900.0 ml,2022-08-24,Cluster 1
131,131,sucursales,1,-34.6177626,-58.416892,485 - ALMAGRO,7790070012050,Autoservicio,AR-C,0% de descuento. Precio Promocional Exclusivo DIA en Sucursales Indicadas Hasta Agotar Stock o Finalice Vigencia.,186.37,186.37,,,True,Av Boedo 431( Almagro) ,Supermercados DIA,CAPITAL FEDERAL,DIA Argentina S.A,15,COCINERO,Aceite de Girasol Cocinero 900 Ml,900.0 ml,2022-08-24,Cluster 1
132,132,sucursales,1,-34.5482475,-58.4669121,486 - NÚÑEZ,7790070012050,Autoservicio,AR-C,0% de descuento. Precio Promocional Exclusivo DIA en Sucursales Indicadas Hasta Agotar Stock o Finalice Vigencia.,186.37,186.37,,,True,Crisologo Larralde 2287 (Nuñez) ,Supermercados DIA,CAPITAL FEDERAL,DIA Argentina S.A,15,COCINERO,Aceite de Girasol Cocinero 900 Ml,900.0 ml,2022-08-24,Cluster 1
133,133,sucursales,1,-34.5608571,-58.4631715,487 - NÚÑEZ,7790070012050,Autoservicio,AR-C,0% de descuento. Precio Promocional Exclusivo DIA en Sucursales Indicadas Hasta Agotar Stock o Finalice Vigencia.,186.37,186.37,,,True,Vidal 2463/69 (Belgrano) ,Supermercados DIA,CAPITAL FEDERAL,DIA Argentina S.A,15,COCINERO,Aceite de Girasol Cocinero 900 Ml,900.0 ml,2022-08-24,Cluster 1
134,134,sucursales,1,-34.5653623,-58.4832909,488 - VILLA URQUIZA,7790070012050,Autoservicio,AR-C,0% de descuento. Precio Promocional Exclusivo DIA en Sucursales Indicadas Hasta Agotar Stock o Finalice Vigencia.,186.37,186.37,,,True,Gral. Mariano Acha 3060 (Villa Urquiza) ,Supermercados DIA,CAPITAL FEDERAL,DIA Argentina S.A,15,COCINERO,Aceite de Girasol Cocinero 900 Ml,900.0 ml,2022-08-24,Cluster 1
135,135,sucursales,1,-34.6158804,-58.4833332,489 - VILLA SANTA RITA,7790070012050,Autoservicio,AR-C,0% de descuento. Precio Promocional Exclusivo DIA en Sucursales Indicadas Hasta Agotar Stock o Finalice Vigencia.,186.37,186.37,,,True,Cuenca 1560 (Villa Santa Rita) ,Supermercados DIA,CAPITAL FEDERAL,DIA Argentina S.A,15,COCINERO,Aceite de Girasol Cocinero 900 Ml,900.0 ml,2022-08-24,Cluster 1
136,136,sucursales,1,-34.6140308,-58.4929315,49 - VILLA SANTA RITA,7790070012050,Autoservicio,AR-C,0% de descuento. Precio Promocional Exclusivo DIA en Sucursales Indicadas Hasta Agotar Stock o Finalice Vigencia.,186.37,186.37,,,True,Cl Emilio Lamarca 1965,Supermercados DIA,CAPITAL FEDERAL,DIA Argentina S.A,15,COCINERO,Aceite de Girasol Cocinero 900 Ml,900.0 ml,2022-08-24,Cluster 1
137,137,sucursales,1,-34.6121897,-58.4693123,490 - VILLA GENERAL MITRE,7790070012050,Autoservicio,AR-C,0% de descuento. Precio Promocional Exclusivo DIA en Sucursales Indicadas Hasta Agotar Stock o Finalice Vigencia.,186.37,186.37,,,True,Av Juan B.Justo 5030 (Villa Gran Mitre) ,Supermercados DIA,CAPITAL FEDERAL,DIA Argentina S.A,15,COCINERO,Aceite de Girasol Cocinero 900 Ml,900.0 ml,2022-08-24,Cluster 1
138,138,sucursales,1,-34.6244356,-58.4349162,491 - CABALLITO,7790070012050,Autoservicio,AR-C,0% de descuento. Precio Promocional Exclusivo DIA en Sucursales Indicadas Hasta Agotar Stock o Finalice Vigencia.,186.37,186.37,,,True,Valle 509 / 519 (Caballito) ,Supermercados DIA,CAPITAL FEDERAL,DIA Argentina S.A,15,COCINERO,Aceite de Girasol Cocinero 900 Ml,900.0 ml,2022-08-24,Cluster 1
139,139,sucursales,1,-34.6082744,-58.4475523,492 - CABALLITO,7790070012050,Autoservicio,AR-C,0% de descuento. Precio Promocional Exclusivo DIA en Sucursales Indicadas Hasta Agotar Stock o Finalice Vigencia.,186.37,186.37,,,True,Av Gaona 1286/90 (Caballito) ,Supermercados DIA,CAPITAL FEDERAL,DIA Argentina S.A,15,COCINERO,Aceite de Girasol Cocinero 900 Ml,900.0 ml,2022-08-24,Cluster 1
140,140,sucursales,1,-34.6116871,-58.381835,493 - MONSERRAT,7790070012050,Autoservicio,AR-C,0% de descuento. Precio Promocional Exclusivo DIA en Sucursales Indicadas Hasta Agotar Stock o Finalice Vigencia.,186.37,186.37,,,True,Lima 277 (Monserrat) ,Supermercados DIA,CAPITAL FEDERAL,DIA Argentina S.A,15,COCINERO,Aceite de Girasol Cocinero 900 Ml,900.0 ml,2022-08-24,Cluster 1
141,141,sucursales,1,-34.5951915,-58.3804858,497 - RETIRO,7790070012050,Autoservicio,AR-C,0% de descuento. Precio Promocional Exclusivo DIA en Sucursales Indicadas Hasta Agotar Stock o Finalice Vigencia.,186.37,186.37,,,True,Av Santa Fe 927 (Retiro) ,Supermercados DIA,CAPITAL FEDERAL,DIA Argentina S.A,15,COCINERO,Aceite de Girasol Cocinero 900 Ml,900.0 ml,2022-08-24,Cluster 1
142,142,sucursales,1,-34.5512734,-58.4871771,498 - SAAVEDRA,7790070012050,Autoservicio,AR-C,0% de descuento. Precio Promocional Exclusivo DIA en Sucursales Indicadas Hasta Agotar Stock o Finalice Vigencia.,186.37,186.37,,,True,Av Ruis Huidobro 3942/44 (Saavedra) ,Supermercados DIA,CAPITAL FEDERAL,DIA Argentina S.A,15,COCINERO,Aceite de Girasol Cocinero 900 Ml,900.0 ml,2022-08-24,Cluster 1
143,143,sucursales,1,-34.605001,-58.594873,499 - EL PALOMAR,7790070012050,Autoservicio,AR-B,0% de descuento. Precio Promocional Exclusivo DIA en Sucursales Indicadas Hasta Agotar Stock o Finalice Vigencia.,186.37,186.37,,,True,Misiones 6458 (Palomar) ,Supermercados DIA,BUENOS AIRES,DIA Argentina S.A,15,COCINERO,Aceite de Girasol Cocinero 900 Ml,900.0 ml,2022-08-24,Cluster 1
144,144,sucursales,1,-34.6236734,-58.4014697,5 - SAN CRISTÓBAL,7790070012050,Autoservicio,AR-C,0% de descuento. Precio Promocional Exclusivo DIA en Sucursales Indicadas Hasta Agotar Stock o Finalice Vigencia.,186.37,186.37,,,True,Av San Juan 2641,Supermercados DIA,CAPITAL FEDERAL,DIA Argentina S.A,15,COCINERO,Aceite de Girasol Cocinero 900 Ml,900.0 ml,2022-08-24,Cluster 1
145,145,sucursales,1,-34.6147863,-58.4787121,50 - VILLA SANTA RITA,7790070012050,Autoservicio,AR-C,0% de descuento. Precio Promocional Exclusivo DIA en Sucursales Indicadas Hasta Agotar Stock o Finalice Vigencia.,186.37,186.37,,,True,Cl Nazca 1663,Supermercados DIA,CAPITAL FEDERAL,DIA Argentina S.A,15,COCINERO,Aceite de Girasol Cocinero 900 Ml,900.0 ml,2022-08-24,Cluster 1
146,146,sucursales,1,-34.5892217,-58.3834012,500 - RETIRO,7790070012050,Autoservicio,AR-C,0% de descuento. Precio Promocional Exclusivo DIA en Sucursales Indicadas Hasta Agotar Stock o Finalice Vigencia.,186.37,186.37,,,True,Cl Libertad 1630 (Retiro) ,Supermercados DIA,CAPITAL FEDERAL,DIA Argentina S.A,15,COCINERO,Aceite de Girasol Cocinero 900 Ml,900.0 ml,2022-08-24,Cluster 1
147,147,sucursales,1,-34.5823064,-58.4716114,501 - VILLA ORTÚZAR,7790070012050,Autoservicio,AR-C,0% de descuento. Precio Promocional Exclusivo DIA en Sucursales Indicadas Hasta Agotar Stock o Finalice Vigencia.,186.37,186.37,,,True,Av Triunvirato 3551 (Villa Urtuzar ) ,Supermercados DIA,CAPITAL FEDERAL,DIA Argentina S.A,15,COCINERO,Aceite de Girasol Cocinero 900 Ml,900.0 ml,2022-08-24,Cluster 1
148,148,sucursales,1,-34.5838928,-58.445996,502 - CHACARITA,7790070012050,Autoservicio,AR-C,0% de descuento. Precio Promocional Exclusivo DIA en Sucursales Indicadas Hasta Agotar Stock o Finalice Vigencia.,186.37,186.37,,,True,Cordoba 6075 (Chacarita) ,Supermercados DIA,CAPITAL FEDERAL,DIA Argentina S.A,15,COCINERO,Aceite de Girasol Cocinero 900 Ml,900.0 ml,2022-08-24,Cluster 1
149,149,sucursales,1,-34.639328,-58.512082,505 - LINIERS,7790070012050,Autoservicio,AR-C,0% de descuento. Precio Promocional Exclusivo DIA en Sucursales Indicadas Hasta Agotar Stock o Finalice Vigencia.,186.37,186.37,,,True,Av Rivadavia 10536 (Liniers) ,Supermercados DIA,CAPITAL FEDERAL,DIA Argentina S.A,15,COCINERO,Aceite de Girasol Cocinero 900 Ml,900.0 ml,2022-08-24,Cluster 1
150,150,sucursales,1,-34.6366914,-58.4617314,508 - FLORES,7790070012050,Autoservicio,AR-C,0% de descuento. Precio Promocional Exclusivo DIA en Sucursales Indicadas Hasta Agotar Stock o Finalice Vigencia.,186.37,186.37,,,True,Varela 605/609 (Flores) ,Supermercados DIA,CAPITAL FEDERAL,DIA Argentina S.A,15,COCINERO,Aceite de Girasol Cocinero 900 Ml,900.0 ml,2022-08-24,Cluster 1
151,151,sucursales,1,-34.5499895,-58.4532876,509 - NÚÑEZ,7790070012050,Autoservicio,AR-C,0% de descuento. Precio Promocional Exclusivo DIA en Sucursales Indicadas Hasta Agotar Stock o Finalice Vigencia.,186.37,186.37,,,True,Avdel Libertador 6761 (Belgrano) ,Supermercados DIA,CAPITAL FEDERAL,DIA Argentina S.A,15,COCINERO,Aceite de Girasol Cocinero 900 Ml,900.0 ml,2022-08-24,Cluster 1
152,152,sucursales,1,-34.7431662,-58.3939275,51 - LOMAS DE ZAMORA,7790070012050,Autoservicio,AR-B,0% de descuento. Precio Promocional Exclusivo DIA en Sucursales Indicadas Hasta Agotar Stock o Finalice Vigencia.,186.37,186.37,,,True,Cl Maipu 148,Supermercados DIA,BUENOS AIRES,DIA Argentina S.A,15,COCINERO,Aceite de Girasol Cocinero 900 Ml,900.0 ml,2022-08-24,Cluster 1
153,153,sucursales,1,-34.6064083,-58.4099023,510 - BALVANERA,7790070012050,Autoservicio,AR-C,0% de descuento. Precio Promocional Exclusivo DIA en Sucursales Indicadas Hasta Agotar Stock o Finalice Vigencia.,186.37,186.37,,,True,Jean Jaures 318(Balvanera) ,Supermercados DIA,CAPITAL FEDERAL,DIA Argentina S.A,15,COCINERO,Aceite de Girasol Cocinero 900 Ml,900.0 ml,2022-08-24,Cluster 1
154,154,sucursales,1,-34.603977,-58.4403471,511 - VILLA CRESPO,7790070012050,Autoservicio,AR-C,0% de descuento. Precio Promocional Exclusivo DIA en Sucursales Indicadas Hasta Agotar Stock o Finalice Vigencia.,186.37,186.37,,,True,Leopoldo Marechal 1247/1249 (Villa Crespo) ,Supermercados DIA,CAPITAL FEDERAL,DIA Argentina S.A,15,COCINERO,Aceite de Girasol Cocinero 900 Ml,900.0 ml,2022-08-24,Cluster 1
155,155,sucursales,1,-34.6159499,-58.3760331,512 - MONSERRAT,7790070012050,Autoservicio,AR-C,0% de descuento. Precio Promocional Exclusivo DIA en Sucursales Indicadas Hasta Agotar Stock o Finalice Vigencia.,186.37,186.37,,,True,Chacabuco 685 (Monserrat) ,Supermercados DIA,CAPITAL FEDERAL,DIA Argentina S.A,15,COCINERO,Aceite de Girasol Cocinero 900 Ml,900.0 ml,2022-08-24,Cluster 1
156,156,sucursales,1,-34.6384109,-58.5053285,513 - VILLA LURO,7790070012050,Autoservicio,AR-C,0% de descuento. Precio Promocional Exclusivo DIA en Sucursales Indicadas Hasta Agotar Stock o Finalice Vigencia.,186.37,186.37,,,True,Av Rivadavia 10060 (Villa Luro) ,Supermercados DIA,CAPITAL FEDERAL,DIA Argentina S.A,15,COCINERO,Aceite de Girasol Cocinero 900 Ml,900.0 ml,2022-08-24,Cluster 1
157,157,sucursales,1,-34.6519788,-58.4267385,5133 - NUEVA POMPEYA,7790070012050,Autoservicio,AR-C,0% de descuento. Precio Promocional Exclusivo DIA en Sucursales Indicadas Hasta Agotar Stock o Finalice Vigencia.,186.37,186.37,,,True,Corrales 1669,Supermercados DIA,CAPITAL FEDERAL,DIA Argentina S.A,15,COCINERO,Aceite de Girasol Cocinero 900 Ml,900.0 ml,2022-08-24,Cluster 1
158,158,sucursales,1,-34.6058424,-58.4533825,52 - VILLA CRESPO,7790070012050,Autoservicio,AR-C,0% de descuento. Precio Promocional Exclusivo DIA en Sucursales Indicadas Hasta Agotar Stock o Finalice Vigencia.,186.37,186.37,,,True,Cl San Martin 1732,Supermercados DIA,CAPITAL FEDERAL,DIA Argentina S.A,15,COCINERO,Aceite de Girasol Cocinero 900 Ml,900.0 ml,2022-08-24,Cluster 1
159,159,sucursales,1,-34.6474444,-58.3763218,520 - BARRACAS,7790070012050,Autoservicio,AR-C,0% de descuento. Precio Promocional Exclusivo DIA en Sucursales Indicadas Hasta Agotar Stock o Finalice Vigencia.,186.37,186.37,,,True,California 1995 ( Barracas) ,Supermercados DIA,CAPITAL FEDERAL,DIA Argentina S.A,15,COCINERO,Aceite de Girasol Cocinero 900 Ml,900.0 ml,2022-08-24,Cluster 1
160,160,sucursales,1,-34.5568173,-58.4789878,522 - COGHLAN,7790070012050,Autoservicio,AR-C,0% de descuento. Precio Promocional Exclusivo DIA en Sucursales Indicadas Hasta Agotar Stock o Finalice Vigencia.,186.37,186.37,,,True,Av Dr Ricardo Balbin 3487 (Coghlan) ,Supermercados DIA,CAPITAL FEDERAL,DIA Argentina S.A,15,COCINERO,Aceite de Girasol Cocinero 900 Ml,900.0 ml,2022-08-24,Cluster 1
161,161,sucursales,1,-34.5802113,-58.4100975,523 - PALERMO,7790070012050,Autoservicio,AR-C,0% de descuento. Precio Promocional Exclusivo DIA en Sucursales Indicadas Hasta Agotar Stock o Finalice Vigencia.,186.37,186.37,,,True,Scalabrini Ortiz 3170 (Palermo) ,Supermercados DIA,CAPITAL FEDERAL,DIA Argentina S.A,15,COCINERO,Aceite de Girasol Cocinero 900 Ml,900.0 ml,2022-08-24,Cluster 1
162,162,sucursales,1,-34.5873487,-58.4051234,525 - RECOLETA,7790070012050,Autoservicio,AR-C,0% de descuento. Precio Promocional Exclusivo DIA en Sucursales Indicadas Hasta Agotar Stock o Finalice Vigencia.,186.37,186.37,,,True,French 2979 (Recoleta) ,Supermercados DIA,CAPITAL FEDERAL,DIA Argentina S.A,15,COCINERO,Aceite de Girasol Cocinero 900 Ml,900.0 ml,2022-08-24,Cluster 1
163,163,sucursales,1,-34.6085744,-58.4836744,5267 - VILLA DEL PARQUE,7790070012050,Autoservicio,AR-C,0% de descuento. Precio Promocional Exclusivo DIA en Sucursales Indicadas Hasta Agotar Stock o Finalice Vigencia.,186.37,186.37,,,True,Nazca 2325,Supermercados DIA,CAPITAL FEDERAL,DIA Argentina S.A,15,COCINERO,Aceite de Girasol Cocinero 900 Ml,900.0 ml,2022-08-24,Cluster 1
164,164,sucursales,1,-34.593583,-58.430572,527 - PALERMO,7790070012050,Autoservicio,AR-C,0% de descuento. Precio Promocional Exclusivo DIA en Sucursales Indicadas Hasta Agotar Stock o Finalice Vigencia.,186.37,186.37,,,True,Av Cordoba 4667 (Palermo) ,Supermercados DIA,CAPITAL FEDERAL,DIA Argentina S.A,15,COCINERO,Aceite de Girasol Cocinero 900 Ml,900.0 ml,2022-08-24,Cluster 1
165,165,sucursales,1,-34.643917,-58.403469,5271 - PARQUE PATRICIOS,7790070012050,Autoservicio,AR-C,0% de descuento. Precio Promocional Exclusivo DIA en Sucursales Indicadas Hasta Agotar Stock o Finalice Vigencia.,186.37,186.37,,,True,Jose C Paz 2965,Supermercados DIA,CAPITAL FEDERAL,DIA Argentina S.A,15,COCINERO,Aceite de Girasol Cocinero 900 Ml,900.0 ml,2022-08-24,Cluster 1
166,166,sucursales,1,-34.601174,-58.412809,528 - ALMAGRO,7790070012050,Autoservicio,AR-C,0% de descuento. Precio Promocional Exclusivo DIA en Sucursales Indicadas Hasta Agotar Stock o Finalice Vigencia.,186.37,186.37,,,True,Gallo 720/24 (Almagro) ,Supermercados DIA,CAPITAL FEDERAL,DIA Argentina S.A,15,COCINERO,Aceite de Girasol Cocinero 900 Ml,900.0 ml,2022-08-24,Cluster 1
209,209,sucursales,1,-34.625231,-58.526688,529 - VILLA REAL,7790070012050,Autoservicio,AR-C,0% de descuento. Precio Promocional Exclusivo DIA en Sucursales Indicadas Hasta Agotar Stock o Finalice Vigencia.,186.37,186.37,,,True,Nogoya 6091 (Villa Real) ,Supermercados DIA,CAPITAL FEDERAL,DIA Argentina S.A,15,COCINERO,Aceite de Girasol Cocinero 900 Ml,900.0 ml,2022-08-24,Cluster 1
210,210,sucursales,1,-34.6927276,-58.6077235,53 - ISIDRO CASANOVA,7790070012050,Autoservicio,AR-B,0% de descuento. Precio Promocional Exclusivo DIA en Sucursales Indicadas Hasta Agotar Stock o Finalice Vigencia.,186.37,186.37,,,True,Cl Cristiania 1507,Supermercados DIA,BUENOS AIRES,DIA Argentina S.A,15,COCINERO,Aceite de Girasol Cocinero 900 Ml,900.0 ml,2022-08-24,Cluster 1
211,211,sucursales,1,-34.674477,-58.47189,530 - VILLA LUGANO,7790070012050,Autoservicio,AR-C,0% de descuento. Precio Promocional Exclusivo DIA en Sucursales Indicadas Hasta Agotar Stock o Finalice Vigencia.,186.37,186.37,,,True,Av Riestra 5398 (Villa Lugano) ,Supermercados DIA,CAPITAL FEDERAL,DIA Argentina S.A,15,COCINERO,Aceite de Girasol Cocinero 900 Ml,900.0 ml,2022-08-24,Cluster 1
212,212,sucursales,1,-34.622075,-58.383908,532 - CONSTITUCIÓN,7790070012050,Autoservicio,AR-C,0% de descuento. Precio Promocional Exclusivo DIA en Sucursales Indicadas Hasta Agotar Stock o Finalice Vigencia.,186.37,186.37,,,True,Av San Juan 1261(Constitucion) ,Supermercados DIA,CAPITAL FEDERAL,DIA Argentina S.A,15,COCINERO,Aceite de Girasol Cocinero 900 Ml,900.0 ml,2022-08-24,Cluster 1
213,213,sucursales,1,-34.572029,-58.477695,535 - VILLA URQUIZA,7790070012050,Autoservicio,AR-C,0% de descuento. Precio Promocional Exclusivo DIA en Sucursales Indicadas Hasta Agotar Stock o Finalice Vigencia.,186.37,186.37,,,True,Olazabal 4324 (Villa Urquiza) ,Supermercados DIA,CAPITAL FEDERAL,DIA Argentina S.A,15,COCINERO,Aceite de Girasol Cocinero 900 Ml,900.0 ml,2022-08-24,Cluster 1
214,214,sucursales,1,-34.63899,-58.362526,536 - LA BOCA,7790070012050,Autoservicio,AR-C,0% de descuento. Precio Promocional Exclusivo DIA en Sucursales Indicadas Hasta Agotar Stock o Finalice Vigencia.,186.37,186.37,,,True,Gral.Gregorio Araoz De Lamadrid 728 (Boca) ,Supermercados DIA,CAPITAL FEDERAL,DIA Argentina S.A,15,COCINERO,Aceite de Girasol Cocinero 900 Ml,900.0 ml,2022-08-24,Cluster 1
215,215,sucursales,1,-34.577265,-58.405981,537 - PALERMO,7790070012050,Autoservicio,AR-C,0% de descuento. Precio Promocional Exclusivo DIA en Sucursales Indicadas Hasta Agotar Stock o Finalice Vigencia.,186.37,186.37,,,True,Jeronimo Salguero 3044 (Palermo) ,Supermercados DIA,CAPITAL FEDERAL,DIA Argentina S.A,15,COCINERO,Aceite de Girasol Cocinero 900 Ml,900.0 ml,2022-08-24,Cluster 1
216,216,sucursales,1,-34.596076,-58.438522,538 - VILLA CRESPO,7790070012050,Autoservicio,AR-C,0% de descuento. Precio Promocional Exclusivo DIA en Sucursales Indicadas Hasta Agotar Stock o Finalice Vigencia.,186.37,186.37,,,True,Juan Ramirez De Velasco 745 (Villa Crespo) ,Supermercados DIA,CAPITAL FEDERAL,DIA Argentina S.A,15,COCINERO,Aceite de Girasol Cocinero 900 Ml,900.0 ml,2022-08-24,Cluster 1
217,217,sucursales,1,-34.7693634,-58.6451543,54 - GONZALEZ CATAN,7790070012050,Autoservicio,AR-B,0% de descuento. Precio Promocional Exclusivo DIA en Sucursales Indicadas Hasta Agotar Stock o Finalice Vigencia.,186.37,186.37,,,True,Cl Jose Maria Moreno 400,Supermercados DIA,BUENOS AIRES,DIA Argentina S.A,15,COCINERO,Aceite de Girasol Cocinero 900 Ml,900.0 ml,2022-08-24,Cluster 1
218,218,sucursales,1,-34.544364,-58.471821,542 - SAAVEDRA,7790070012050,Autoservicio,AR-C,0% de descuento. Precio Promocional Exclusivo DIA en Sucursales Indicadas Hasta Agotar Stock o Finalice Vigencia.,186.37,186.37,,,True,Av Cabildo 4316 (Saavedra) ,Supermercados DIA,CAPITAL FEDERAL,DIA Argentina S.A,15,COCINERO,Aceite de Girasol Cocinero 900 Ml,900.0 ml,2022-08-24,Cluster 1
219,219,sucursales,1,-34.60315,-58.385229,544 - BALVANERA,7790070012050,Autoservicio,AR-C,0% de descuento. Precio Promocional Exclusivo DIA en Sucursales Indicadas Hasta Agotar Stock o Finalice Vigencia.,186.37,186.37,,,True,Talcahuano 475 (San Nicolas) ,Supermercados DIA,CAPITAL FEDERAL,DIA Argentina S.A,15,COCINERO,Aceite de Girasol Cocinero 900 Ml,900.0 ml,2022-08-24,Cluster 1
220,220,sucursales,1,-34.629103,-58.439518,547 - PARQUE CHACABUCO,7790070012050,Autoservicio,AR-C,0% de descuento. Precio Promocional Exclusivo DIA en Sucursales Indicadas Hasta Agotar Stock o Finalice Vigencia.,186.37,186.37,,,True,Av Del Barco Centenera 801 (Parque Chacabuco ) ,Supermercados DIA,CAPITAL FEDERAL,DIA Argentina S.A,15,COCINERO,Aceite de Girasol Cocinero 900 Ml,900.0 ml,2022-08-24,Cluster 1
221,221,sucursales,1,-34.5999938,-58.4032685,548 - BALVANERA,7790070012050,Autoservicio,AR-C,0% de descuento. Precio Promocional Exclusivo DIA en Sucursales Indicadas Hasta Agotar Stock o Finalice Vigencia.,186.37,186.37,,,True,Paso 752 (Balbanera) ,Supermercados DIA,CAPITAL FEDERAL,DIA Argentina S.A,15,COCINERO,Aceite de Girasol Cocinero 900 Ml,900.0 ml,2022-08-24,Cluster 1
222,222,sucursales,1,-34.860558,-57.9032607,55 - ENSENADA,7790070012050,Autoservicio,AR-B,0% de descuento. Precio Promocional Exclusivo DIA en Sucursales Indicadas Hasta Agotar Stock o Finalice Vigencia.,186.37,186.37,,,True,Cl La Merced 220,Supermercados DIA,BUENOS AIRES,DIA Argentina S.A,15,COCINERO,Aceite de Girasol Cocinero 900 Ml,900.0 ml,2022-08-24,Cluster 1
223,223,sucursales,1,-34.6436537,-58.4927124,56 - VILLA LURO,7790070012050,Autoservicio,AR-C,0% de descuento. Precio Promocional Exclusivo DIA en Sucursales Indicadas Hasta Agotar Stock o Finalice Vigencia.,186.37,186.37,,,True,Cl Juan B. Alberdi 4730,Supermercados DIA,CAPITAL FEDERAL,DIA Argentina S.A,15,COCINERO,Aceite de Girasol Cocinero 900 Ml,900.0 ml,2022-08-24,Cluster 1
224,224,sucursales,1,-34.5376215,-58.5117145,57 - VICENTE LOPEZ,7790070012050,Autoservicio,AR-B,0% de descuento. Precio Promocional Exclusivo DIA en Sucursales Indicadas Hasta Agotar Stock o Finalice Vigencia.,186.37,186.37,,,True,Cl Gral De San Martin 3800,Supermercados DIA,BUENOS AIRES,DIA Argentina S.A,15,COCINERO,Aceite de Girasol Cocinero 900 Ml,900.0 ml,2022-08-24,Cluster 1
225,225,sucursales,1,-34.615999,-58.408296,58 - BALVANERA,7790070012050,Autoservicio,AR-C,0% de descuento. Precio Promocional Exclusivo DIA en Sucursales Indicadas Hasta Agotar Stock o Finalice Vigencia.,186.37,186.37,,,True,Cl La Rioja 465,Supermercados DIA,CAPITAL FEDERAL,DIA Argentina S.A,15,COCINERO,Aceite de Girasol Cocinero 900 Ml,900.0 ml,2022-08-24,Cluster 1
226,226,sucursales,1,-34.7793172,-58.3102963,59 - SAN FRANCISCO SOLANO,7790070012050,Autoservicio,AR-B,0% de descuento. Precio Promocional Exclusivo DIA en Sucursales Indicadas Hasta Agotar Stock o Finalice Vigencia.,186.37,186.37,,,True,Cl Jose Andres Lopez 2346,Supermercados DIA,BUENOS AIRES,DIA Argentina S.A,15,COCINERO,Aceite de Girasol Cocinero 900 Ml,900.0 ml,2022-08-24,Cluster 1
227,227,sucursales,1,-34.6289482,-58.4642662,6 - FLORES,7790070012050,Autoservicio,AR-C,0% de descuento. Precio Promocional Exclusivo DIA en Sucursales Indicadas Hasta Agotar Stock o Finalice Vigencia.,186.37,186.37,,,True,Cl Artigas 26,Supermercados DIA,CAPITAL FEDERAL,DIA Argentina S.A,15,COCINERO,Aceite de Girasol Cocinero 900 Ml,900.0 ml,2022-08-24,Cluster 1
228,228,sucursales,1,-34.6248959,-58.4938555,60 - FLORESTA,7790070012050,Autoservicio,AR-C,0% de descuento. Precio Promocional Exclusivo DIA en Sucursales Indicadas Hasta Agotar Stock o Finalice Vigencia.,186.37,186.37,,,True,Cl Segurola 1178,Supermercados DIA,CAPITAL FEDERAL,DIA Argentina S.A,15,COCINERO,Aceite de Girasol Cocinero 900 Ml,900.0 ml,2022-08-24,Cluster 1
229,229,sucursales,1,-34.562834,-58.6101726,61 - LOMA HERMOSA,7790070012050,Autoservicio,AR-B,0% de descuento. Precio Promocional Exclusivo DIA en Sucursales Indicadas Hasta Agotar Stock o Finalice Vigencia.,186.37,186.37,,,True,Av Eva Peron 9735,Supermercados DIA,BUENOS AIRES,DIA Argentina S.A,15,COCINERO,Aceite de Girasol Cocinero 900 Ml,900.0 ml,2022-08-24,Cluster 1
230,230,sucursales,1,-34.8198093,-58.4673986,62 - MONTE GRANDE,7790070012050,Autoservicio,AR-B,0% de descuento. Precio Promocional Exclusivo DIA en Sucursales Indicadas Hasta Agotar Stock o Finalice Vigencia.,186.37,186.37,,,True,Cl Vicente Lopez 473,Supermercados DIA,BUENOS AIRES,DIA Argentina S.A,15,COCINERO,Aceite de Girasol Cocinero 900 Ml,900.0 ml,2022-08-24,Cluster 1
231,231,sucursales,1,-34.7482106,-58.5884615,63 - LAFERRERE,7790070012050,Autoservicio,AR-B,0% de descuento. Precio Promocional Exclusivo DIA en Sucursales Indicadas Hasta Agotar Stock o Finalice Vigencia.,186.37,186.37,,,True,Cl Magnasco 3147,Supermercados DIA,BUENOS AIRES,DIA Argentina S.A,15,COCINERO,Aceite de Girasol Cocinero 900 Ml,900.0 ml,2022-08-24,Cluster 1
232,232,sucursales,1,-34.6612587,-58.7263109,64 - MERLO,7790070012050,Autoservicio,AR-B,0% de descuento. Precio Promocional Exclusivo DIA en Sucursales Indicadas Hasta Agotar Stock o Finalice Vigencia.,186.37,186.37,,,True,Cl Hipolito Irigoyen 357,Supermercados DIA,BUENOS AIRES,DIA Argentina S.A,15,COCINERO,Aceite de Girasol Cocinero 900 Ml,900.0 ml,2022-08-24,Cluster 1
233,233,sucursales,1,-34.5795557,-58.4770438,65 - VILLA URQUIZA,7790070012050,Autoservicio,AR-C,0% de descuento. Precio Promocional Exclusivo DIA en Sucursales Indicadas Hasta Agotar Stock o Finalice Vigencia.,186.37,186.37,,,True,Cl Triunvirato 3981,Supermercados DIA,CAPITAL FEDERAL,DIA Argentina S.A,15,COCINERO,Aceite de Girasol Cocinero 900 Ml,900.0 ml,2022-08-24,Cluster 1
234,234,sucursales,1,-34.47267,-58.762683,66 - TORTUGUITAS,7790070012050,Autoservicio,AR-B,0% de descuento. Precio Promocional Exclusivo DIA en Sucursales Indicadas Hasta Agotar Stock o Finalice Vigencia.,186.37,186.37,,,True,Cl Luis Maria Drago 238,Supermercados DIA,BUENOS AIRES,DIA Argentina S.A,15,COCINERO,Aceite de Girasol Cocinero 900 Ml,900.0 ml,2022-08-24,Cluster 1
235,235,sucursales,1,-34.7693312,-58.3556143,67 - ALMIRANTE BROWN,7790070012050,Autoservicio,AR-B,0% de descuento. Precio Promocional Exclusivo DIA en Sucursales Indicadas Hasta Agotar Stock o Finalice Vigencia.,186.37,186.37,,,True,Cl Salta 957,Supermercados DIA,BUENOS AIRES,DIA Argentina S.A,15,COCINERO,Aceite de Girasol Cocinero 900 Ml,900.0 ml,2022-08-24,Cluster 1
236,236,sucursales,1,-34.6307077,-58.5897402,68 - MORON,7790070012050,Autoservicio,AR-B,0% de descuento. Precio Promocional Exclusivo DIA en Sucursales Indicadas Hasta Agotar Stock o Finalice Vigencia.,186.37,186.37,,,True,Cl Cap.Claudio Rosales 1549,Supermercados DIA,BUENOS AIRES,DIA Argentina S.A,15,COCINERO,Aceite de Girasol Cocinero 900 Ml,900.0 ml,2022-08-24,Cluster 1
237,237,sucursales,1,-34.6049604,-58.4208375,69 - PALERMO,7790070012050,Autoservicio,AR-C,0% de descuento. Precio Promocional Exclusivo DIA en Sucursales Indicadas Hasta Agotar Stock o Finalice Vigencia.,186.37,186.37,,,True,Cl Sarmiento 3978,Supermercados DIA,CAPITAL FEDERAL,DIA Argentina S.A,15,COCINERO,Aceite de Girasol Cocinero 900 Ml,900.0 ml,2022-08-24,Cluster 1
238,238,sucursales,1,-34.6024774,-58.4281829,7 - ALMAGRO,7790070012050,Autoservicio,AR-C,0% de descuento. Precio Promocional Exclusivo DIA en Sucursales Indicadas Hasta Agotar Stock o Finalice Vigencia.,186.37,186.37,,,True,Av Corrientes 4474,Supermercados DIA,CAPITAL FEDERAL,DIA Argentina S.A,15,COCINERO,Aceite de Girasol Cocinero 900 Ml,900.0 ml,2022-08-24,Cluster 1
239,239,sucursales,1,-34.754677,-58.613909,70 - RAFAEL CASTILLO,7790070012050,Autoservicio,AR-B,0% de descuento. Precio Promocional Exclusivo DIA en Sucursales Indicadas Hasta Agotar Stock o Finalice Vigencia.,186.37,186.37,,,True,Cl Calderon De La Barca 4948,Supermercados DIA,BUENOS AIRES,DIA Argentina S.A,15,COCINERO,Aceite de Girasol Cocinero 900 Ml,900.0 ml,2022-08-24,Cluster 1
240,240,sucursales,1,-34.7073192,-58.5165375,71 - ALDO BONZI,7790070012050,Autoservicio,AR-B,0% de descuento. Precio Promocional Exclusivo DIA en Sucursales Indicadas Hasta Agotar Stock o Finalice Vigencia.,186.37,186.37,,,True,Cl Jose Alico 969,Supermercados DIA,BUENOS AIRES,DIA Argentina S.A,15,COCINERO,Aceite de Girasol Cocinero 900 Ml,900.0 ml,2022-08-24,Cluster 1
241,241,sucursales,1,-34.8097369,-58.1872598,73 - BERAZATEGUI,7790070012050,Autoservicio,AR-B,0% de descuento. Precio Promocional Exclusivo DIA en Sucursales Indicadas Hasta Agotar Stock o Finalice Vigencia.,186.37,186.37,,,True,Cl Heroes De Malvina 2839,Supermercados DIA,BUENOS AIRES,DIA Argentina S.A,15,COCINERO,Aceite de Girasol Cocinero 900 Ml,900.0 ml,2022-08-24,Cluster 1
242,242,sucursales,1,-34.8068123,-58.301815,74 - FLORENCIO VARELA,7790070012050,Autoservicio,AR-B,0% de descuento. Precio Promocional Exclusivo DIA en Sucursales Indicadas Hasta Agotar Stock o Finalice Vigencia.,186.37,186.37,,,True,Cl El Aljibe 700,Supermercados DIA,BUENOS AIRES,DIA Argentina S.A,15,COCINERO,Aceite de Girasol Cocinero 900 Ml,900.0 ml,2022-08-24,Cluster 1
243,243,sucursales,1,-34.6653764,-58.4427103,75 - VILLA SOLDATI,7790070012050,Autoservicio,AR-C,0% de descuento. Precio Promocional Exclusivo DIA en Sucursales Indicadas Hasta Agotar Stock o Finalice Vigencia.,186.37,186.37,,,True,Cl Mariano Acosta 3552,Supermercados DIA,CAPITAL FEDERAL,DIA Argentina S.A,15,COCINERO,Aceite de Girasol Cocinero 900 Ml,900.0 ml,2022-08-24,Cluster 1
244,244,sucursales,1,-34.8119282,-58.6347284,76 - VIRREY DEL PINO,7790070012050,Autoservicio,AR-B,0% de descuento. Precio Promocional Exclusivo DIA en Sucursales Indicadas Hasta Agotar Stock o Finalice Vigencia.,186.37,186.37,,,True,Cl Rio De La Plata 7431,Supermercados DIA,BUENOS AIRES,DIA Argentina S.A,15,COCINERO,Aceite de Girasol Cocinero 900 Ml,900.0 ml,2022-08-24,Cluster 1
245,245,sucursales,1,-34.5744356,-58.5744848,77 - SAN MARTIN,7790070012050,Autoservicio,AR-B,0% de descuento. Precio Promocional Exclusivo DIA en Sucursales Indicadas Hasta Agotar Stock o Finalice Vigencia.,186.37,186.37,,,True,Cl Primera Junta 5800,Supermercados DIA,BUENOS AIRES,DIA Argentina S.A,15,COCINERO,Aceite de Girasol Cocinero 900 Ml,900.0 ml,2022-08-24,Cluster 1
246,246,sucursales,1,-34.8338743,-58.4949847,78 - EL JAGUEL PDO ESTEB ECHE,7790070012050,Autoservicio,AR-B,0% de descuento. Precio Promocional Exclusivo DIA en Sucursales Indicadas Hasta Agotar Stock o Finalice Vigencia.,186.37,186.37,,,True,Cl Evita 354,Supermercados DIA,BUENOS AIRES,DIA Argentina S.A,15,COCINERO,Aceite de Girasol Cocinero 900 Ml,900.0 ml,2022-08-24,Cluster 1
247,247,sucursales,1,-34.7520628,-58.2343069,79 - EZPELETA,7790070012050,Autoservicio,AR-B,0% de descuento. Precio Promocional Exclusivo DIA en Sucursales Indicadas Hasta Agotar Stock o Finalice Vigencia.,186.37,186.37,,,True,Cl San Martin 5355,Supermercados DIA,BUENOS AIRES,DIA Argentina S.A,15,COCINERO,Aceite de Girasol Cocinero 900 Ml,900.0 ml,2022-08-24,Cluster 1
248,248,sucursales,1,-34.6355238,-58.4889911,8 - VÉLEZ SÁRSFIELD,7790070012050,Autoservicio,AR-C,0% de descuento. Precio Promocional Exclusivo DIA en Sucursales Indicadas Hasta Agotar Stock o Finalice Vigencia.,186.37,186.37,,,True,Av Rivadavia 8875,Supermercados DIA,CAPITAL FEDERAL,DIA Argentina S.A,15,COCINERO,Aceite de Girasol Cocinero 900 Ml,900.0 ml,2022-08-24,Cluster 1
249,249,sucursales,1,-34.8519579,-58.5222721,80 - EZEIZA,7790070012050,Autoservicio,AR-B,0% de descuento. Precio Promocional Exclusivo DIA en Sucursales Indicadas Hasta Agotar Stock o Finalice Vigencia.,186.37,186.37,,,True,Cl French 202,Supermercados DIA,BUENOS AIRES,DIA Argentina S.A,15,COCINERO,Aceite de Girasol Cocinero 900 Ml,900.0 ml,2022-08-24,Cluster 1
250,250,sucursales,1,-34.4195453,-58.7286033,81 - GARIN,7790070012050,Autoservicio,AR-B,0% de descuento. Precio Promocional Exclusivo DIA en Sucursales Indicadas Hasta Agotar Stock o Finalice Vigencia.,186.37,186.37,,,True,Cl Belgrano 664,Supermercados DIA,BUENOS AIRES,DIA Argentina S.A,15,COCINERO,Aceite de Girasol Cocinero 900 Ml,900.0 ml,2022-08-24,Cluster 1
251,251,sucursales,1,-34.7256805,-58.3981378,82 - LANUS,7790070012050,Autoservicio,AR-B,0% de descuento. Precio Promocional Exclusivo DIA en Sucursales Indicadas Hasta Agotar Stock o Finalice Vigencia.,186.37,186.37,,,True,Cl Coronel Beltran 239,Supermercados DIA,BUENOS AIRES,DIA Argentina S.A,15,COCINERO,Aceite de Girasol Cocinero 900 Ml,900.0 ml,2022-08-24,Cluster 1
252,252,sucursales,1,-34.9105116,-58.5930473,83 - EZEIZA,7790070012050,Autoservicio,AR-B,0% de descuento. Precio Promocional Exclusivo DIA en Sucursales Indicadas Hasta Agotar Stock o Finalice Vigencia.,186.37,186.37,,,True,Cl 25 De Mayo 151,Supermercados DIA,BUENOS AIRES,DIA Argentina S.A,15,COCINERO,Aceite de Girasol Cocinero 900 Ml,900.0 ml,2022-08-24,Cluster 1
253,253,sucursales,1,-34.5286128,-58.4931423,84 - VICENTE LOPEZ,7790070012050,Autoservicio,AR-B,0% de descuento. Precio Promocional Exclusivo DIA en Sucursales Indicadas Hasta Agotar Stock o Finalice Vigencia.,186.37,186.37,,,True,Cl San Martin 2269,Supermercados DIA,BUENOS AIRES,DIA Argentina S.A,15,COCINERO,Aceite de Girasol Cocinero 900 Ml,900.0 ml,2022-08-24,Cluster 1
254,254,sucursales,1,-34.6674682,-58.4734538,85 - VILLA SOLDATI,7790070012050,Autoservicio,AR-C,0% de descuento. Precio Promocional Exclusivo DIA en Sucursales Indicadas Hasta Agotar Stock o Finalice Vigencia.,186.37,186.37,,,True,Cl Castañares 4944,Supermercados DIA,CAPITAL FEDERAL,DIA Argentina S.A,15,COCINERO,Aceite de Girasol Cocinero 900 Ml,900.0 ml,2022-08-24,Cluster 1
255,255,sucursales,1,-34.532479,-58.575497,87 - JOSE LEON SUAREZ,7790070012050,Autoservicio,AR-B,0% de descuento. Precio Promocional Exclusivo DIA en Sucursales Indicadas Hasta Agotar Stock o Finalice Vigencia.,186.37,186.37,,,True,Cl Pacifico Rodriguez 7270,Supermercados DIA,BUENOS AIRES,DIA Argentina S.A,15,COCINERO,Aceite de Girasol Cocinero 900 Ml,900.0 ml,2022-08-24,Cluster 1
286,286,sucursales,1,-34.73492,-58.5853229,88 - RAFAEL CASTILLO,7790070012050,Autoservicio,AR-B,0% de descuento. Precio Promocional Exclusivo DIA en Sucursales Indicadas Hasta Agotar Stock o Finalice Vigencia.,186.37,186.37,,,True,Cl Soldado Sosa 5460,Supermercados DIA,BUENOS AIRES,DIA Argentina S.A,15,COCINERO,Aceite de Girasol Cocinero 900 Ml,900.0 ml,2022-08-24,Cluster 1
287,287,sucursales,1,-34.46141,-58.775516,89 - ALBERTI,7790070012050,Autoservicio,AR-B,0% de descuento. Precio Promocional Exclusivo DIA en Sucursales Indicadas Hasta Agotar Stock o Finalice Vigencia.,186.37,186.37,,,True,Cl Hip.Irigoyen 465,Supermercados DIA,BUENOS AIRES,DIA Argentina S.A,15,COCINERO,Aceite de Girasol Cocinero 900 Ml,900.0 ml,2022-08-24,Cluster 1
288,288,sucursales,1,-34.6402735,-58.5418243,9 - CIUDADELA,7790070012050,Autoservicio,AR-B,0% de descuento. Precio Promocional Exclusivo DIA en Sucursales Indicadas Hasta Agotar Stock o Finalice Vigencia.,186.37,186.37,,,True,Cl Av. Rivadavia 12646,Supermercados DIA,BUENOS AIRES,DIA Argentina S.A,15,COCINERO,Aceite de Girasol Cocinero 900 Ml,900.0 ml,2022-08-24,Cluster 1
289,289,sucursales,1,-34.6089665,-58.4414318,90 - VILLA CRESPO,7790070012050,Autoservicio,AR-C,0% de descuento. Precio Promocional Exclusivo DIA en Sucursales Indicadas Hasta Agotar Stock o Finalice Vigencia.,186.37,186.37,,,True,Cl Hidalgo 860,Supermercados DIA,CAPITAL FEDERAL,DIA Argentina S.A,15,COCINERO,Aceite de Girasol Cocinero 900 Ml,900.0 ml,2022-08-24,Cluster 1
290,290,sucursales,1,-34.6375385,-58.5001704,91 - VILLA LURO,7790070012050,Autoservicio,AR-C,0% de descuento. Precio Promocional Exclusivo DIA en Sucursales Indicadas Hasta Agotar Stock o Finalice Vigencia.,186.37,186.37,,,True,Cl Rivadavia 9650,Supermercados DIA,CAPITAL FEDERAL,DIA Argentina S.A,15,COCINERO,Aceite de Girasol Cocinero 900 Ml,900.0 ml,2022-08-24,Cluster 1
291,291,sucursales,1,-34.4517657,-58.7974943,92 - DEL VISO,7790070012050,Autoservicio,AR-B,0% de descuento. Precio Promocional Exclusivo DIA en Sucursales Indicadas Hasta Agotar Stock o Finalice Vigencia.,186.37,186.37,,,True,Cl Valentin Gomez Y Madero ,Supermercados DIA,BUENOS AIRES,DIA Argentina S.A,15,COCINERO,Aceite de Girasol Cocinero 900 Ml,900.0 ml,2022-08-24,Cluster 1
292,292,sucursales,1,-34.829305,-58.228639,93 - FLORENCIO VARELA,7790070012050,Autoservicio,AR-B,0% de descuento. Precio Promocional Exclusivo DIA en Sucursales Indicadas Hasta Agotar Stock o Finalice Vigencia.,186.37,186.37,,,True,Cl Lujan Esq. Olavarria 2002,Supermercados DIA,BUENOS AIRES,DIA Argentina S.A,15,COCINERO,Aceite de Girasol Cocinero 900 Ml,900.0 ml,2022-08-24,Cluster 1
293,293,sucursales,1,-34.58276,-58.658565,94 - HURLINGHAM,7790070012050,Autoservicio,AR-B,0% de descuento. Precio Promocional Exclusivo DIA en Sucursales Indicadas Hasta Agotar Stock o Finalice Vigencia.,186.37,186.37,,,True,Cl Villegas Esquina Cañuelas ,Supermercados DIA,BUENOS AIRES,DIA Argentina S.A,15,COCINERO,Aceite de Girasol Cocinero 900 Ml,900.0 ml,2022-08-24,Cluster 1
294,294,sucursales,1,-34.984291,-58.376123,96 - ALEJANDRO KORN,7790070012050,Autoservicio,AR-B,0% de descuento. Precio Promocional Exclusivo DIA en Sucursales Indicadas Hasta Agotar Stock o Finalice Vigencia.,186.37,186.37,,,True,Cl Boulev De Mayo Y Av Mitre 4138,Supermercados DIA,BUENOS AIRES,DIA Argentina S.A,15,COCINERO,Aceite de Girasol Cocinero 900 Ml,900.0 ml,2022-08-24,Cluster 1
295,295,sucursales,1,-34.6467621,-58.6184887,98 - MORON,7790070012050,Autoservicio,AR-B,0% de descuento. Precio Promocional Exclusivo DIA en Sucursales Indicadas Hasta Agotar Stock o Finalice Vigencia.,186.37,186.37,,,True,Cl Independencia 173,Supermercados DIA,BUENOS AIRES,DIA Argentina S.A,15,COCINERO,Aceite de Girasol Cocinero 900 Ml,900.0 ml,2022-08-24,Cluster 1
296,296,sucursales,1,-34.65598,-58.762382,99 - PASO DEL REY,7790070012050,Autoservicio,AR-B,0% de descuento. Precio Promocional Exclusivo DIA en Sucursales Indicadas Hasta Agotar Stock o Finalice Vigencia.,186.37,186.37,,,True,Cl S.M. Del Carril Y Ruta 7 169,Supermercados DIA,BUENOS AIRES,DIA Argentina S.A,15,COCINERO,Aceite de Girasol Cocinero 900 Ml,900.0 ml,2022-08-24,Cluster 1
297,297,sucursales,2,-31.432014,-64.243991,CDBA-Fuerza Aerea,7790070231468,Supermercado,AR-X,"Llevando este producto, pagás $399.00 hasta  el 24/08/2022. Hasta agotar Stock.",399.0,442.0,,,True,Av Fuerza Aerea Argentina 4372,Changomas,BARRIO MATIENZO *,Wal Mart Argentina S.R.L.,11,LIRA,Aceite de Girasol Lira 900 Cc,900.0 cc,2022-08-24,Cluster 2
1051212,1051212,sucursales,1,-34.6119685,-58.5279779,410 - VILLA DEVOTO,7790070012050,Autoservicio,AR-C,0% de descuento. Precio Promocional Exclusivo DIA en Sucursales Indicadas Hasta Agotar Stock o Finalice Vigencia.,186.37,186.37,,,True,Av Lope De Vega 3472 ( Villa Devoto) ,Supermercados DIA,CAPITAL FEDERAL,DIA Argentina S.A,15,COCINERO,Aceite de Girasol Cocinero 900 Ml,900.0 ml,2022-08-25,Cluster 1
1051213,1051213,sucursales,1,-34.6467684,-58.5140065,411 - LINIERS,7790070012050,Autoservicio,AR-C,0% de descuento. Precio Promocional Exclusivo DIA en Sucursales Indicadas Hasta Agotar Stock o Finalice Vigencia.,186.37,186.37,,,True,Patron 6273 ( Liniers) ,Supermercados DIA,CAPITAL FEDERAL,DIA Argentina S.A,15,COCINERO,Aceite de Girasol Cocinero 900 Ml,900.0 ml,2022-08-25,Cluster 1
1051214,1051214,sucursales,1,-34.5727565,-58.4883282,412 - VILLA URQUIZA,7790070012050,Autoservicio,AR-C,0% de descuento. Precio Promocional Exclusivo DIA en Sucursales Indicadas Hasta Agotar Stock o Finalice Vigencia.,186.37,186.37,,,True,Av Triunvirato 4933 ( Villa Urquiza) ,Supermercados DIA,CAPITAL FEDERAL,DIA Argentina S.A,15,COCINERO,Aceite de Girasol Cocinero 900 Ml,900.0 ml,2022-08-25,Cluster 1
1051215,1051215,sucursales,1,-34.5585404,-58.4603022,413 - NÚÑEZ,7790070012050,Autoservicio,AR-C,0% de descuento. Precio Promocional Exclusivo DIA en Sucursales Indicadas Hasta Agotar Stock o Finalice Vigencia.,186.37,186.37,,,True,Av Monroe 2442 (Belgrano) ,Supermercados DIA,CAPITAL FEDERAL,DIA Argentina S.A,15,COCINERO,Aceite de Girasol Cocinero 900 Ml,900.0 ml,2022-08-25,Cluster 1
1051216,1051216,sucursales,1,-34.577198,-58.4599651,414 - COLEGIALES,7790070012050,Autoservicio,AR-C,0% de descuento. Precio Promocional Exclusivo DIA en Sucursales Indicadas Hasta Agotar Stock o Finalice Vigencia.,186.37,186.37,,,True,Av Elcano 3521 (Colegiales) ,Supermercados DIA,CAPITAL FEDERAL,DIA Argentina S.A,15,COCINERO,Aceite de Girasol Cocinero 900 Ml,900.0 ml,2022-08-25,Cluster 1
1051217,1051217,sucursales,1,-34.5976686,-58.3781834,415 - RETIRO,7790070012050,Autoservicio,AR-C,0% de descuento. Precio Promocional Exclusivo DIA en Sucursales Indicadas Hasta Agotar Stock o Finalice Vigencia.,186.37,186.37,,,True,Paraguay 788 (Retiro) ,Supermercados DIA,CAPITAL FEDERAL,DIA Argentina S.A,15,COCINERO,Aceite de Girasol Cocinero 900 Ml,900.0 ml,2022-08-25,Cluster 1
1051218,1051218,sucursales,1,-34.5672438,-58.4502161,417 - COLEGIALES,7790070012050,Autoservicio,AR-C,0% de descuento. Precio Promocional Exclusivo DIA en Sucursales Indicadas Hasta Agotar Stock o Finalice Vigencia.,186.37,186.37,,,True,Av Cabildo 1426 (Colegiales) ,Supermercados DIA,CAPITAL FEDERAL,DIA Argentina S.A,15,COCINERO,Aceite de Girasol Cocinero 900 Ml,900.0 ml,2022-08-25,Cluster 1
1051219,1051219,sucursales,1,-34.5830372,-58.476676,418 - PARQUE CHAS,7790070012050,Autoservicio,AR-C,0% de descuento. Precio Promocional Exclusivo DIA en Sucursales Indicadas Hasta Agotar Stock o Finalice Vigencia.,186.37,186.37,,,True,Av De Los Incas 4701 (Parque Chas) ,Supermercados DIA,CAPITAL FEDERAL,DIA Argentina S.A,15,COCINERO,Aceite de Girasol Cocinero 900 Ml,900.0 ml,2022-08-25,Cluster 1
1051220,1051220,sucursales,1,-34.6178053,-58.5020885,42 - VERSALLES,7790070012050,Autoservicio,AR-C,0% de descuento. Precio Promocional Exclusivo DIA en Sucursales Indicadas Hasta Agotar Stock o Finalice Vigencia.,186.37,186.37,,,True,Cl Alvarez Jonte 4471,Supermercados DIA,CAPITAL FEDERAL,DIA Argentina S.A,15,COCINERO,Aceite de Girasol Cocinero 900 Ml,900.0 ml,2022-08-25,Cluster 1
1056086,1056086,sucursales,3,-34.564492,-58.455869,Sucre 2480,7790070231468,Autoservicio,AR-C,,,474.0,,,True,Sucre 2480,Express,Ciudad Autónoma de Buenos Aires,INC S.A.,10,LIRA,Aceite de Girasol Lira 900 Cc,900.0 cc,2022-08-25,Cluster 0
1056107,1056107,sucursales,3,-34.597351,-58.374515,Paraguay 521,7790070231468,Autoservicio,AR-C,,,474.0,,,True,Paraguay 521,Express,Ciudad Autónoma de Buenos Aires,INC S.A.,10,LIRA,Aceite de Girasol Lira 900 Cc,900.0 cc,2022-08-25,Cluster 0
1056111,1056111,sucursales,3,-31.412485,-64.185278,General Paz 240,7792180001641,Autoservicio,AR-X,,,196.63,,,True,Gral. Paz 240,Express,Córdoba,INC S.A.,10,CAÑUELAS,Aceite de Girasol Cañuelas 900 Cc,900.0 cc,2022-08-25,Cluster 1
1056116,1056116,sucursales,2,-34.541198,-58.563095,Chilavert,7792180001641,Supermercado,AR-B,,,186.37,,,True,Lacroze 5910,Market,Chilavert,INC S.A.,10,CAÑUELAS,Aceite de Girasol Cañuelas 900 Cc,900.0 cc,2022-08-25,Cluster 1
1056121,1056121,sucursales,1,-37.8494919,-58.261301,Balcarce,7792180001641,Supermercado,AR-B,,,189.11,,,True,Av Kelly 792,Toledo,Balcarce,Supermercados Toledo S.A.,21,CAÑUELAS,Aceite de Girasol Cañuelas 900 Cc,900.0 cc,2022-08-25,Cluster 1
1056123,1056123,sucursales,1,-34.5947,-60.9474,Junin,7792180001641,Supermercado,AR-B,,,192.9,,,True,Roca Ataliva 35,Vea,JUNIN,Jumbo Retail Argentina S.A.,9,CAÑUELAS,Aceite de Girasol Cañuelas 900 Cc,900.0 cc,2022-08-25,Cluster 1
1056125,1056125,sucursales,3,-34.676217,-58.563547,Arieta 2850,7790070012050,Autoservicio,AR-B,,,186.37,,,True,Arieta 2850,Express,La Matanza,INC S.A.,10,COCINERO,Aceite de Girasol Cocinero 900 Ml,900.0 ml,2022-08-25,Cluster 1
1056126,1056126,sucursales,1,-27.4388,-58.987383,Resistencia II,7790070012050,Hipermercado,AR-H,,,199.42,,,True,Av. Ávalos ,Hipermercado Carrefour,Resistencia,INC S.A.,10,COCINERO,Aceite de Girasol Cocinero 900 Ml,900.0 ml,2022-08-25,Cluster 1
1056134,1056134,sucursales,1,-32.03214,-60.307578,Hipermercado LAR,7790070012050,Hipermercado,AR-E,,,210.0,"COMPRANDO ESTE PRODUCTO, JUEVES / 20% Descuento en 1 Pago (crédito y débito VISA- MASTERCARD-AMERICAN EXPRESS) Banco Patagonia. Tope reint. $1000 o Hasta agotar Stock. 55.00 Unidades Disponibles.",189.0,True,San Martin 1404,LA AGRICOLA REGIONAL COOPERATIVA LIMITADA,Crespo,La Agricola Regional Cooperativa Limitada,20,COCINERO,Aceite de Girasol Cocinero 900 Ml,900.0 ml,2022-08-25,Cluster 1
1056137,1056137,sucursales,3,-34.619772,-58.428125,Av. La Plata 430,7790070012050,Supermercado,AR-C,,,186.37,,,True,Av. La Plata 430,Express,Ciudad Autónoma de Buenos Aires,INC S.A.,10,COCINERO,Aceite de Girasol Cocinero 900 Ml,900.0 ml,2022-08-25,Cluster 1
1056153,1056153,sucursales,2,-34.913497,-57.951821,La Plata I,7790070231468,Supermercado,AR-B,,,447.0,,,True,Calle 7 767,Market,La Plata,INC S.A.,10,LIRA,Aceite de Girasol Lira 900 Cc,900.0 cc,2022-08-25,Cluster 0
1056159,1056159,sucursales,2,-34.541198,-58.563095,Chilavert,7790070231468,Supermercado,AR-B,,,447.0,,,True,Lacroze 5910,Market,Chilavert,INC S.A.,10,LIRA,Aceite de Girasol Lira 900 Cc,900.0 cc,2022-08-25,Cluster 0
1062037,1062037,sucursales,1,-34.583693,-58.4675266,420 - VILLA ORTÚZAR,7790070012050,Autoservicio,AR-C,0% de descuento. Precio Promocional Exclusivo DIA en Sucursales Indicadas Hasta Agotar Stock o Finalice Vigencia.,186.37,186.37,,,True,Avtriunvirato 3217 ( Villa Ortuza) ,Supermercados DIA,CAPITAL FEDERAL,DIA Argentina S.A,15,COCINERO,Aceite de Girasol Cocinero 900 Ml,900.0 ml,2022-08-25,Cluster 1
1075041,1075041,sucursales,1,-40.8148,-63.0052,Viedma,7792180001641,Hipermercado,AR-R,,,201.3,,,True,Saavedra 1455,Cooperativa Obrera Limitada de Consumo y Vivienda,Viedma,Cooperativa Obrera Limitada de Consumo y Vivienda,13,CAÑUELAS,Aceite de Girasol Cañuelas 900 Cc,900.0 cc,2022-08-24,Cluster 1
1075050,1075050,sucursales,2,-31.730408,-60.528649,Parana Uruguay,7790070012050,Supermercado,AR-E,,,196.63,,,True,Uruguay 35,Market,Paraná,INC S.A.,10,COCINERO,Aceite de Girasol Cocinero 900 Ml,900.0 ml,2022-08-24,Cluster 1
1075052,1075052,sucursales,1,-32.03214,-60.307578,Hipermercado LAR,7790070012050,Hipermercado,AR-E,,,210.0,"COMPRANDO ESTE PRODUCTO, MIERCOLES / 20% Desc. 1 Pago (créd. NATIVA VISA- NATIVA MASTERCARD) Bco. Nación. Tope reint. $2500 - Vig. 30/09/2022, aplic. 1ª Transac. // 20% desc. CABAL Credicoop Rubro Supermercado  Tope $ 1000 x transac al 30/09/2022. VISA y MASTER BERSA 10% y 3 cuotas s/int Supermercado. Tope $1000 x cuenta al 31/12/2022 o Hasta agotar Stock. 55.00 Unidades Disponibles.",168.0,True,San Martin 1404,LA AGRICOLA REGIONAL COOPERATIVA LIMITADA,Crespo,La Agricola Regional Cooperativa Limitada,20,COCINERO,Aceite de Girasol Cocinero 900 Ml,900.0 ml,2022-08-24,Cluster 1
1075058,1075058,sucursales,3,-34.62779,-58.360295,Caboto 420,7790070231468,Autoservicio,AR-C,,,474.0,,,True,Caboto 420,Express,Ciudad Autónoma de Buenos Aires,INC S.A.,10,LIRA,Aceite de Girasol Lira 900 Cc,900.0 cc,2022-08-24,Cluster 0
1075063,1075063,sucursales,1,-34.3444298,-58.7916233,194 - ESCOBAR,7790070231468,Autoservicio,AR-B,,,450.96,,,True,Cl Tapia De Cruz 223,Supermercados DIA,BUENOS AIRES,DIA Argentina S.A,15,LIRA,Aceite de Girasol Lira 900 Cc,900.0 cc,2022-08-24,Cluster 0
1075351,1075351,sucursales,1,-34.6136307,-58.3746625,421 - MONSERRAT,7790070012050,Autoservicio,AR-C,0% de descuento. Precio Promocional Exclusivo DIA en Sucursales Indicadas Hasta Agotar Stock o Finalice Vigencia.,186.37,186.37,,,True,Peru 486 ( Monserrat) ,Supermercados DIA,CAPITAL FEDERAL,DIA Argentina S.A,15,COCINERO,Aceite de Girasol Cocinero 900 Ml,900.0 ml,2022-08-25,Cluster 1
1076100,1076100,sucursales,1,-34.5971373,-58.4976429,1 - VILLA DEL PARQUE,7792180001641,Autoservicio,AR-C,0% de descuento. Precio Promocional Exclusivo DIA en Sucursales Indicadas Hasta Agotar Stock o Finalice Vigencia.,186.37,186.37,,,True,Cl Beiro 3146,Supermercados DIA,CAPITAL FEDERAL,DIA Argentina S.A,15,CAÑUELAS,Aceite de Girasol Cañuelas 900 Cc,900.0 cc,2022-08-25,Cluster 1
1076101,1076101,sucursales,1,-34.601775,-58.5618167,10 - CASEROS,7792180001641,Autoservicio,AR-B,0% de descuento. Precio Promocional Exclusivo DIA en Sucursales Indicadas Hasta Agotar Stock o Finalice Vigencia.,186.37,186.37,,,True,Cl San Martin 2146,Supermercados DIA,BUENOS AIRES,DIA Argentina S.A,15,CAÑUELAS,Aceite de Girasol Cañuelas 900 Cc,900.0 cc,2022-08-25,Cluster 1
1076102,1076102,sucursales,1,-34.5247293,-58.5473185,100 - VILLA ADELINA,7792180001641,Autoservicio,AR-B,0% de descuento. Precio Promocional Exclusivo DIA en Sucursales Indicadas Hasta Agotar Stock o Finalice Vigencia.,186.37,186.37,,,True,Av Parana 6370,Supermercados DIA,BUENOS AIRES,DIA Argentina S.A,15,CAÑUELAS,Aceite de Girasol Cañuelas 900 Cc,900.0 cc,2022-08-25,Cluster 1
1076103,1076103,sucursales,1,-34.80887,-58.388804,1002 - ADROGUE,7792180001641,Autoservicio,AR-B,0% de descuento. Precio Promocional Exclusivo DIA en Sucursales Indicadas Hasta Agotar Stock o Finalice Vigencia.,186.37,186.37,,,True,Cl Espora 1462,Supermercados DIA,BUENOS AIRES,DIA Argentina S.A,15,CAÑUELAS,Aceite de Girasol Cañuelas 900 Cc,900.0 cc,2022-08-25,Cluster 1
1076104,1076104,sucursales,1,-34.4887679,-58.7246946,1003 - GRAND BOURG,7792180001641,Autoservicio,AR-B,0% de descuento. Precio Promocional Exclusivo DIA en Sucursales Indicadas Hasta Agotar Stock o Finalice Vigencia.,186.37,186.37,,,True,Cl El Callao 1242,Supermercados DIA,BUENOS AIRES,DIA Argentina S.A,15,CAÑUELAS,Aceite de Girasol Cañuelas 900 Cc,900.0 cc,2022-08-25,Cluster 1
1076105,1076105,sucursales,1,-34.531566,-58.5262106,1004 - VICENTE LOPEZ,7792180001641,Autoservicio,AR-B,0% de descuento. Precio Promocional Exclusivo DIA en Sucursales Indicadas Hasta Agotar Stock o Finalice Vigencia.,186.37,186.37,,,True,Cl Dalmanico Velez Sarfield 4864,Supermercados DIA,BUENOS AIRES,DIA Argentina S.A,15,CAÑUELAS,Aceite de Girasol Cañuelas 900 Cc,900.0 cc,2022-08-25,Cluster 1
1076106,1076106,sucursales,1,-34.6878905,-58.5225796,1006 - TABLADA,7792180001641,Autoservicio,AR-B,0% de descuento. Precio Promocional Exclusivo DIA en Sucursales Indicadas Hasta Agotar Stock o Finalice Vigencia.,186.37,186.37,,,True,Cl J. S. Crovara 2472,Supermercados DIA,BUENOS AIRES,DIA Argentina S.A,15,CAÑUELAS,Aceite de Girasol Cañuelas 900 Cc,900.0 cc,2022-08-25,Cluster 1
1076107,1076107,sucursales,1,-34.643977,-58.683783,1007 - ITUIZANGO,7792180001641,Autoservicio,AR-B,0% de descuento. Precio Promocional Exclusivo DIA en Sucursales Indicadas Hasta Agotar Stock o Finalice Vigencia.,186.37,186.37,,,True,Cl Cnl.C.F.De Brandsen 1957,Supermercados DIA,BUENOS AIRES,DIA Argentina S.A,15,CAÑUELAS,Aceite de Girasol Cañuelas 900 Cc,900.0 cc,2022-08-25,Cluster 1
1076108,1076108,sucursales,1,-34.5189208,-58.5605106,1008 - SAN ISIDRO,7792180001641,Autoservicio,AR-B,0% de descuento. Precio Promocional Exclusivo DIA en Sucursales Indicadas Hasta Agotar Stock o Finalice Vigencia.,186.37,186.37,,,True,Cl Bernardo Ader 775,Supermercados DIA,BUENOS AIRES,DIA Argentina S.A,15,CAÑUELAS,Aceite de Girasol Cañuelas 900 Cc,900.0 cc,2022-08-25,Cluster 1
1076109,1076109,sucursales,1,-34.6574848,-58.5407918,1009 - LOMAS DEL MIRADOR,7792180001641,Autoservicio,AR-B,0% de descuento. Precio Promocional Exclusivo DIA en Sucursales Indicadas Hasta Agotar Stock o Finalice Vigencia.,186.37,186.37,,,True,Cl Eva Peron 297,Supermercados DIA,BUENOS AIRES,DIA Argentina S.A,15,CAÑUELAS,Aceite de Girasol Cañuelas 900 Cc,900.0 cc,2022-08-25,Cluster 1
1076110,1076110,sucursales,1,-34.4982986,-58.6389961,101 - SAN FERNANDO,7792180001641,Autoservicio,AR-B,0% de descuento. Precio Promocional Exclusivo DIA en Sucursales Indicadas Hasta Agotar Stock o Finalice Vigencia.,186.37,186.37,,,True,Av A.T.Alvear 822,Supermercados DIA,BUENOS AIRES,DIA Argentina S.A,15,CAÑUELAS,Aceite de Girasol Cañuelas 900 Cc,900.0 cc,2022-08-25,Cluster 1
1076111,1076111,sucursales,1,-34.751627,-58.419417,1010 - LOMAS DE ZAMORA,7792180001641,Autoservicio,AR-B,0% de descuento. Precio Promocional Exclusivo DIA en Sucursales Indicadas Hasta Agotar Stock o Finalice Vigencia.,186.37,186.37,,,True,Cl Santa Fe. 500,Supermercados DIA,BUENOS AIRES,DIA Argentina S.A,15,CAÑUELAS,Aceite de Girasol Cañuelas 900 Cc,900.0 cc,2022-08-25,Cluster 1
1076112,1076112,sucursales,1,-34.656602,-58.6486973,1011 - MORON,7792180001641,Autoservicio,AR-B,0% de descuento. Precio Promocional Exclusivo DIA en Sucursales Indicadas Hasta Agotar Stock o Finalice Vigencia.,186.37,186.37,,,True,Cl Zeballos 3028,Supermercados DIA,BUENOS AIRES,DIA Argentina S.A,15,CAÑUELAS,Aceite de Girasol Cañuelas 900 Cc,900.0 cc,2022-08-25,Cluster 1
1076113,1076113,sucursales,1,-34.830925,-58.457272,1012 - MONTE GRANDE,7792180001641,Autoservicio,AR-B,0% de descuento. Precio Promocional Exclusivo DIA en Sucursales Indicadas Hasta Agotar Stock o Finalice Vigencia.,186.37,186.37,,,True,Cl Dreyer Y Alem 1600,Supermercados DIA,BUENOS AIRES,DIA Argentina S.A,15,CAÑUELAS,Aceite de Girasol Cañuelas 900 Cc,900.0 cc,2022-08-25,Cluster 1
1076114,1076114,sucursales,1,-34.571709,-58.602061,1014 - PABLO PODESTA,7792180001641,Autoservicio,AR-B,0% de descuento. Precio Promocional Exclusivo DIA en Sucursales Indicadas Hasta Agotar Stock o Finalice Vigencia.,186.37,186.37,,,True,Cl Gabino Ezeiza Esq Brasil 8650,Supermercados DIA,BUENOS AIRES,DIA Argentina S.A,15,CAÑUELAS,Aceite de Girasol Cañuelas 900 Cc,900.0 cc,2022-08-25,Cluster 1
1076115,1076115,sucursales,1,-34.647481,-58.796414,1015 - MORENO,7792180001641,Autoservicio,AR-B,0% de descuento. Precio Promocional Exclusivo DIA en Sucursales Indicadas Hasta Agotar Stock o Finalice Vigencia.,186.37,186.37,,,True,Av Bartolome Mitre 3244,Supermercados DIA,BUENOS AIRES,DIA Argentina S.A,15,CAÑUELAS,Aceite de Girasol Cañuelas 900 Cc,900.0 cc,2022-08-25,Cluster 1
1076116,1076116,sucursales,1,-34.819423,-58.27799,1017 - FLORENCIO VARELA,7792180001641,Autoservicio,AR-B,0% de descuento. Precio Promocional Exclusivo DIA en Sucursales Indicadas Hasta Agotar Stock o Finalice Vigencia.,186.37,186.37,,,True,Av Belgica 61,Supermercados DIA,BUENOS AIRES,DIA Argentina S.A,15,CAÑUELAS,Aceite de Girasol Cañuelas 900 Cc,900.0 cc,2022-08-25,Cluster 1
1076117,1076117,sucursales,1,-35.561416,-58.017385,1018 - CHASCOMUS,7792180001641,Autoservicio,AR-B,0% de descuento. Precio Promocional Exclusivo DIA en Sucursales Indicadas Hasta Agotar Stock o Finalice Vigencia.,186.37,186.37,,,True,Cl J.M.De Rosas Y Tucuman 800,Supermercados DIA,BUENOS AIRES,DIA Argentina S.A,15,CAÑUELAS,Aceite de Girasol Cañuelas 900 Cc,900.0 cc,2022-08-25,Cluster 1
1076118,1076118,sucursales,1,-34.633596,-58.783554,1019 - MORENO,7792180001641,Autoservicio,AR-B,0% de descuento. Precio Promocional Exclusivo DIA en Sucursales Indicadas Hasta Agotar Stock o Finalice Vigencia.,186.37,186.37,,,True,Av Libertador 1501,Supermercados DIA,BUENOS AIRES,DIA Argentina S.A,15,CAÑUELAS,Aceite de Girasol Cañuelas 900 Cc,900.0 cc,2022-08-25,Cluster 1
1076119,1076119,sucursales,1,-34.5317321,-58.7221086,102 - SAN MIGUEL,7792180001641,Autoservicio,AR-B,0% de descuento. Precio Promocional Exclusivo DIA en Sucursales Indicadas Hasta Agotar Stock o Finalice Vigencia.,186.37,186.37,,,True,Cl Av.Primera Junta 952,Supermercados DIA,BUENOS AIRES,DIA Argentina S.A,15,CAÑUELAS,Aceite de Girasol Cañuelas 900 Cc,900.0 cc,2022-08-25,Cluster 1
1076120,1076120,sucursales,1,-34.7920076,-58.3575072,1021 - RAFAEL CALZADA,7792180001641,Autoservicio,AR-B,0% de descuento. Precio Promocional Exclusivo DIA en Sucursales Indicadas Hasta Agotar Stock o Finalice Vigencia.,186.37,186.37,,,True,Av San Martin 3429,Supermercados DIA,BUENOS AIRES,DIA Argentina S.A,15,CAÑUELAS,Aceite de Girasol Cañuelas 900 Cc,900.0 cc,2022-08-25,Cluster 1
1076121,1076121,sucursales,1,-34.586125,-58.595549,1022 - MARTIN CORONADO,7792180001641,Autoservicio,AR-B,0% de descuento. Precio Promocional Exclusivo DIA en Sucursales Indicadas Hasta Agotar Stock o Finalice Vigencia.,186.37,186.37,,,True,Cl Pres.Juan D.Peron 7230,Supermercados DIA,BUENOS AIRES,DIA Argentina S.A,15,CAÑUELAS,Aceite de Girasol Cañuelas 900 Cc,900.0 cc,2022-08-25,Cluster 1
1076122,1076122,sucursales,1,-34.7672566,-58.2195186,1023 - BERAZATEGUI,7792180001641,Autoservicio,AR-B,0% de descuento. Precio Promocional Exclusivo DIA en Sucursales Indicadas Hasta Agotar Stock o Finalice Vigencia.,186.37,186.37,,,True,Cl Calle N°14 3880,Supermercados DIA,BUENOS AIRES,DIA Argentina S.A,15,CAÑUELAS,Aceite de Girasol Cañuelas 900 Cc,900.0 cc,2022-08-25,Cluster 1
1076123,1076123,sucursales,1,-34.804783,-58.477246,1024 - MONTE GRANDE,7792180001641,Autoservicio,AR-B,0% de descuento. Precio Promocional Exclusivo DIA en Sucursales Indicadas Hasta Agotar Stock o Finalice Vigencia.,186.37,186.37,,,True,Cl Nuest. Malvinas Y D.Funes 1024,Supermercados DIA,BUENOS AIRES,DIA Argentina S.A,15,CAÑUELAS,Aceite de Girasol Cañuelas 900 Cc,900.0 cc,2022-08-25,Cluster 1
1076124,1076124,sucursales,1,-36.313707,-57.680161,1025 - DOLORES,7792180001641,Autoservicio,AR-B,0% de descuento. Precio Promocional Exclusivo DIA en Sucursales Indicadas Hasta Agotar Stock o Finalice Vigencia.,186.37,186.37,,,True,Cl Bs.As.Esq.Pueyrredon 400,Supermercados DIA,BUENOS AIRES,DIA Argentina S.A,15,CAÑUELAS,Aceite de Girasol Cañuelas 900 Cc,900.0 cc,2022-08-25,Cluster 1
1076125,1076125,sucursales,1,-34.6498757,-58.6504339,1026 - CASTELAR,7792180001641,Autoservicio,AR-B,0% de descuento. Precio Promocional Exclusivo DIA en Sucursales Indicadas Hasta Agotar Stock o Finalice Vigencia.,186.37,186.37,,,True,Av Gdor. Inocencio Arias 2983,Supermercados DIA,BUENOS AIRES,DIA Argentina S.A,15,CAÑUELAS,Aceite de Girasol Cañuelas 900 Cc,900.0 cc,2022-08-25,Cluster 1
1076126,1076126,sucursales,1,-34.682558,-58.666738,1027 - ITUIZANGO,7792180001641,Autoservicio,AR-B,0% de descuento. Precio Promocional Exclusivo DIA en Sucursales Indicadas Hasta Agotar Stock o Finalice Vigencia.,186.37,186.37,,,True,Cl F.L.Beltran Y Gral Pinto 2269,Supermercados DIA,BUENOS AIRES,DIA Argentina S.A,15,CAÑUELAS,Aceite de Girasol Cañuelas 900 Cc,900.0 cc,2022-08-25,Cluster 1
1076127,1076127,sucursales,1,-34.608716,-58.643543,1028 - VILLA TESEI,7792180001641,Autoservicio,AR-B,0% de descuento. Precio Promocional Exclusivo DIA en Sucursales Indicadas Hasta Agotar Stock o Finalice Vigencia.,186.37,186.37,,,True,Cl Pedro Diaz Esq. El Zorzal 1098,Supermercados DIA,BUENOS AIRES,DIA Argentina S.A,15,CAÑUELAS,Aceite de Girasol Cañuelas 900 Cc,900.0 cc,2022-08-25,Cluster 1
1076128,1076128,sucursales,1,-34.546947,-58.582492,1029 - SAN MARTIN,7792180001641,Autoservicio,AR-B,0% de descuento. Precio Promocional Exclusivo DIA en Sucursales Indicadas Hasta Agotar Stock o Finalice Vigencia.,186.37,186.37,,,True,Cl Av.Brig.Gral.J.M.De Rosas 4351 Esq.9 De Julio ,Supermercados DIA,BUENOS AIRES,DIA Argentina S.A,15,CAÑUELAS,Aceite de Girasol Cañuelas 900 Cc,900.0 cc,2022-08-25,Cluster 1
1076129,1076129,sucursales,1,-34.5185576,-58.5005836,103 - OLIVOS,7792180001641,Autoservicio,AR-B,0% de descuento. Precio Promocional Exclusivo DIA en Sucursales Indicadas Hasta Agotar Stock o Finalice Vigencia.,186.37,186.37,,,True,Cl Gobernador Ugarte 2450,Supermercados DIA,BUENOS AIRES,DIA Argentina S.A,15,CAÑUELAS,Aceite de Girasol Cañuelas 900 Cc,900.0 cc,2022-08-25,Cluster 1
1076130,1076130,sucursales,1,-34.490438,-58.624077,1030 - TIGRE,7792180001641,Autoservicio,AR-B,0% de descuento. Precio Promocional Exclusivo DIA en Sucursales Indicadas Hasta Agotar Stock o Finalice Vigencia.,186.37,186.37,,,True,Av Angel Torcuato De Alvear 2235,Supermercados DIA,BUENOS AIRES,DIA Argentina S.A,15,CAÑUELAS,Aceite de Girasol Cañuelas 900 Cc,900.0 cc,2022-08-25,Cluster 1
1076131,1076131,sucursales,1,-34.7735937,-58.384968,1031 - LOMAS DE ZAMORA,7792180001641,Autoservicio,AR-B,0% de descuento. Precio Promocional Exclusivo DIA en Sucursales Indicadas Hasta Agotar Stock o Finalice Vigencia.,186.37,186.37,,,True,Av Eva Peron 950,Supermercados DIA,BUENOS AIRES,DIA Argentina S.A,15,CAÑUELAS,Aceite de Girasol Cañuelas 900 Cc,900.0 cc,2022-08-25,Cluster 1
1076132,1076132,sucursales,1,-34.61042,-58.944474,1032 - GENERAL RODRIGUEZ,7792180001641,Autoservicio,AR-B,0% de descuento. Precio Promocional Exclusivo DIA en Sucursales Indicadas Hasta Agotar Stock o Finalice Vigencia.,186.37,186.37,,,True,Cl Blvd.Bro. De Irigoyen 1326,Supermercados DIA,BUENOS AIRES,DIA Argentina S.A,15,CAÑUELAS,Aceite de Girasol Cañuelas 900 Cc,900.0 cc,2022-08-25,Cluster 1
1076133,1076133,sucursales,1,-34.892971,-57.945932,1034 - ENSENADA,7792180001641,Autoservicio,AR-B,0% de descuento. Precio Promocional Exclusivo DIA en Sucursales Indicadas Hasta Agotar Stock o Finalice Vigencia.,186.37,186.37,,,True,Av 122 Entre Calle 38 Y 40 39,Supermercados DIA,BUENOS AIRES,DIA Argentina S.A,15,CAÑUELAS,Aceite de Girasol Cañuelas 900 Cc,900.0 cc,2022-08-25,Cluster 1
1076134,1076134,sucursales,1,-34.666094,-58.616849,1035 - MORON,7792180001641,Autoservicio,AR-B,0% de descuento. Precio Promocional Exclusivo DIA en Sucursales Indicadas Hasta Agotar Stock o Finalice Vigencia.,186.37,186.37,,,True,Cl Aguero Esquina Balcarce 935,Supermercados DIA,BUENOS AIRES,DIA Argentina S.A,15,CAÑUELAS,Aceite de Girasol Cañuelas 900 Cc,900.0 cc,2022-08-25,Cluster 1
1076135,1076135,sucursales,1,-34.35006,-58.7914597,1036 - ESCOBAR,7792180001641,Autoservicio,AR-B,0% de descuento. Precio Promocional Exclusivo DIA en Sucursales Indicadas Hasta Agotar Stock o Finalice Vigencia.,186.37,186.37,,,True,Cl 25 De Mayo ( Ruta25 ) 700,Supermercados DIA,BUENOS AIRES,DIA Argentina S.A,15,CAÑUELAS,Aceite de Girasol Cañuelas 900 Cc,900.0 cc,2022-08-25,Cluster 1
1076136,1076136,sucursales,1,-34.5096952,-58.7296151,1037 - JOSE C. PAZ,7792180001641,Autoservicio,AR-B,0% de descuento. Precio Promocional Exclusivo DIA en Sucursales Indicadas Hasta Agotar Stock o Finalice Vigencia.,186.37,186.37,,,True,Av Pte Hipolito Irigoyen (Rp 24) 40,Supermercados DIA,BUENOS AIRES,DIA Argentina S.A,15,CAÑUELAS,Aceite de Girasol Cañuelas 900 Cc,900.0 cc,2022-08-25,Cluster 1
1076137,1076137,sucursales,1,-34.5141769,-58.5305171,1038 - VICENTE LOPEZ,7792180001641,Autoservicio,AR-B,0% de descuento. Precio Promocional Exclusivo DIA en Sucursales Indicadas Hasta Agotar Stock o Finalice Vigencia.,186.37,186.37,,,True,Av Mitre 4211,Supermercados DIA,BUENOS AIRES,DIA Argentina S.A,15,CAÑUELAS,Aceite de Girasol Cañuelas 900 Cc,900.0 cc,2022-08-25,Cluster 1
1076138,1076138,sucursales,1,-34.7616457,-58.3619447,1039 - LOMAS DE ZAMORA,7792180001641,Autoservicio,AR-B,0% de descuento. Precio Promocional Exclusivo DIA en Sucursales Indicadas Hasta Agotar Stock o Finalice Vigencia.,186.37,186.37,,,True,Av Eva Peron 2948,Supermercados DIA,BUENOS AIRES,DIA Argentina S.A,15,CAÑUELAS,Aceite de Girasol Cañuelas 900 Cc,900.0 cc,2022-08-25,Cluster 1
1076139,1076139,sucursales,1,-35.0221052,-58.4204728,104 - SAN VICENTE,7792180001641,Autoservicio,AR-B,0% de descuento. Precio Promocional Exclusivo DIA en Sucursales Indicadas Hasta Agotar Stock o Finalice Vigencia.,186.37,186.37,,,True,Cl 25 De Mayo 232 Entre Ohiggins Y Castelli ,Supermercados DIA,BUENOS AIRES,DIA Argentina S.A,15,CAÑUELAS,Aceite de Girasol Cañuelas 900 Cc,900.0 cc,2022-08-25,Cluster 1
1076140,1076140,sucursales,1,-34.5218226,-58.7876928,1040 - JOSE C. PAZ,7792180001641,Autoservicio,AR-B,0% de descuento. Precio Promocional Exclusivo DIA en Sucursales Indicadas Hasta Agotar Stock o Finalice Vigencia.,186.37,186.37,,,True,Av Croacia 1196,Supermercados DIA,BUENOS AIRES,DIA Argentina S.A,15,CAÑUELAS,Aceite de Girasol Cañuelas 900 Cc,900.0 cc,2022-08-25,Cluster 1
1076141,1076141,sucursales,1,-34.7329159,-58.4289309,1041 - LOMAS DE ZAMORA,7792180001641,Autoservicio,AR-B,0% de descuento. Precio Promocional Exclusivo DIA en Sucursales Indicadas Hasta Agotar Stock o Finalice Vigencia.,186.37,186.37,,,True,Av M. Rodriguez Y G. Mistral 950,Supermercados DIA,BUENOS AIRES,DIA Argentina S.A,15,CAÑUELAS,Aceite de Girasol Cañuelas 900 Cc,900.0 cc,2022-08-25,Cluster 1
1076142,1076142,sucursales,1,-34.691239,-58.337871,1047 - AVELLANEDA,7792180001641,Autoservicio,AR-B,0% de descuento. Precio Promocional Exclusivo DIA en Sucursales Indicadas Hasta Agotar Stock o Finalice Vigencia.,186.37,186.37,,,True,Av Belgrano 4222,Supermercados DIA,BUENOS AIRES,DIA Argentina S.A,15,CAÑUELAS,Aceite de Girasol Cañuelas 900 Cc,900.0 cc,2022-08-25,Cluster 1
1076143,1076143,sucursales,1,-34.5911652,-58.5591593,105 - SAN MARTIN,7792180001641,Autoservicio,AR-B,0% de descuento. Precio Promocional Exclusivo DIA en Sucursales Indicadas Hasta Agotar Stock o Finalice Vigencia.,186.37,186.37,,,True,Cl 1° De Mayo 6045,Supermercados DIA,BUENOS AIRES,DIA Argentina S.A,15,CAÑUELAS,Aceite de Girasol Cañuelas 900 Cc,900.0 cc,2022-08-25,Cluster 1
1076144,1076144,sucursales,1,-34.5582314,-58.5699744,106 - VILLA BALLESTER,7792180001641,Autoservicio,AR-B,0% de descuento. Precio Promocional Exclusivo DIA en Sucursales Indicadas Hasta Agotar Stock o Finalice Vigencia.,186.37,186.37,,,True,Cl 9 De Julio 5300,Supermercados DIA,BUENOS AIRES,DIA Argentina S.A,15,CAÑUELAS,Aceite de Girasol Cañuelas 900 Cc,900.0 cc,2022-08-25,Cluster 1
1076145,1076145,sucursales,1,-34.6783452,-58.4873173,1066 - VILLA LUGANO,7792180001641,Autoservicio,AR-C,0% de descuento. Precio Promocional Exclusivo DIA en Sucursales Indicadas Hasta Agotar Stock o Finalice Vigencia.,186.37,186.37,,,True,Av Piedrabuena 3941,Supermercados DIA,CAPITAL FEDERAL,DIA Argentina S.A,15,CAÑUELAS,Aceite de Girasol Cañuelas 900 Cc,900.0 cc,2022-08-25,Cluster 1
1076146,1076146,sucursales,1,-34.8032345,-58.4494122,107 - LUIS GUILLON,7792180001641,Autoservicio,AR-B,0% de descuento. Precio Promocional Exclusivo DIA en Sucursales Indicadas Hasta Agotar Stock o Finalice Vigencia.,186.37,186.37,,,True,Cl Varisco 1652,Supermercados DIA,BUENOS AIRES,DIA Argentina S.A,15,CAÑUELAS,Aceite de Girasol Cañuelas 900 Cc,900.0 cc,2022-08-25,Cluster 1
1076147,1076147,sucursales,1,-34.6238633,-58.5582513,1070 - CIUDADELA,7792180001641,Autoservicio,AR-B,0% de descuento. Precio Promocional Exclusivo DIA en Sucursales Indicadas Hasta Agotar Stock o Finalice Vigencia.,186.37,186.37,,,True,Av Hipolito Yrigoyen 2040 Y Marcelo T. De Alvear ,Supermercados DIA,BUENOS AIRES,DIA Argentina S.A,15,CAÑUELAS,Aceite de Girasol Cañuelas 900 Cc,900.0 cc,2022-08-25,Cluster 1
1076148,1076148,sucursales,1,-34.6308932,-58.3984397,1072 - PARQUE PATRICIOS,7792180001641,Autoservicio,AR-C,0% de descuento. Precio Promocional Exclusivo DIA en Sucursales Indicadas Hasta Agotar Stock o Finalice Vigencia.,186.37,186.37,,,True,Av Brasil 2450,Supermercados DIA,CAPITAL FEDERAL,DIA Argentina S.A,15,CAÑUELAS,Aceite de Girasol Cañuelas 900 Cc,900.0 cc,2022-08-25,Cluster 1
1076149,1076149,sucursales,1,-34.618411,-58.398396,1074 - SAN CRISTÓBAL,7792180001641,Autoservicio,AR-C,0% de descuento. Precio Promocional Exclusivo DIA en Sucursales Indicadas Hasta Agotar Stock o Finalice Vigencia.,186.37,186.37,,,True,Av Independencia2262/78 ,Supermercados DIA,CAPITAL FEDERAL,DIA Argentina S.A,15,CAÑUELAS,Aceite de Girasol Cañuelas 900 Cc,900.0 cc,2022-08-25,Cluster 1
1076150,1076150,sucursales,1,-35.033081,-63.012165,1075 - GENERAL VILLEGAS,7792180001641,Autoservicio,AR-B,0% de descuento. Precio Promocional Exclusivo DIA en Sucursales Indicadas Hasta Agotar Stock o Finalice Vigencia.,186.37,186.37,,,True,Pueyrredon 351,Supermercados DIA,BUENOS AIRES,DIA Argentina S.A,15,CAÑUELAS,Aceite de Girasol Cañuelas 900 Cc,900.0 cc,2022-08-25,Cluster 1
1076151,1076151,sucursales,1,-38.3814993,-60.2758305,1078 - TRES ARROYOS,7792180001641,Autoservicio,AR-B,0% de descuento. Precio Promocional Exclusivo DIA en Sucursales Indicadas Hasta Agotar Stock o Finalice Vigencia.,186.37,186.37,,,True,25 De Mayo 302,Supermercados DIA,BUENOS AIRES,DIA Argentina S.A,15,CAÑUELAS,Aceite de Girasol Cañuelas 900 Cc,900.0 cc,2022-08-25,Cluster 1
1076152,1076152,sucursales,1,-34.5694121,-58.477915,108 - VILLA URQUIZA,7792180001641,Autoservicio,AR-C,0% de descuento. Precio Promocional Exclusivo DIA en Sucursales Indicadas Hasta Agotar Stock o Finalice Vigencia.,186.37,186.37,,,True,Av Monroe 4278,Supermercados DIA,CAPITAL FEDERAL,DIA Argentina S.A,15,CAÑUELAS,Aceite de Girasol Cañuelas 900 Cc,900.0 cc,2022-08-25,Cluster 1
1076153,1076153,sucursales,1,-34.616082,-58.442562,1080 - CABALLITO,7792180001641,Autoservicio,AR-C,0% de descuento. Precio Promocional Exclusivo DIA en Sucursales Indicadas Hasta Agotar Stock o Finalice Vigencia.,186.37,186.37,,,True,Av Avellaneda 848 ( Caballito) ,Supermercados DIA,CAPITAL FEDERAL,DIA Argentina S.A,15,CAÑUELAS,Aceite de Girasol Cañuelas 900 Cc,900.0 cc,2022-08-25,Cluster 1
1076154,1076154,sucursales,1,-34.6534717,-58.3887202,1086 - BARRACAS,7792180001641,Autoservicio,AR-C,0% de descuento. Precio Promocional Exclusivo DIA en Sucursales Indicadas Hasta Agotar Stock o Finalice Vigencia.,186.37,186.37,,,True,Av Velez Sarsfield 1572 (Barracas) ,Supermercados DIA,CAPITAL FEDERAL,DIA Argentina S.A,15,CAÑUELAS,Aceite de Girasol Cañuelas 900 Cc,900.0 cc,2022-08-25,Cluster 1
1076155,1076155,sucursales,1,-38.2722815,-57.837578,1088 - MIRAMAR,7792180001641,Autoservicio,AR-B,0% de descuento. Precio Promocional Exclusivo DIA en Sucursales Indicadas Hasta Agotar Stock o Finalice Vigencia.,186.37,186.37,,,True,Calle 23 1036,Supermercados DIA,BUENOS AIRES,DIA Argentina S.A,15,CAÑUELAS,Aceite de Girasol Cañuelas 900 Cc,900.0 cc,2022-08-25,Cluster 1
1076156,1076156,sucursales,1,-34.5500853,-58.463929,109 - NÚÑEZ,7792180001641,Autoservicio,AR-C,0% de descuento. Precio Promocional Exclusivo DIA en Sucursales Indicadas Hasta Agotar Stock o Finalice Vigencia.,186.37,186.37,,,True,Cl Manuela Pedraza 2152,Supermercados DIA,CAPITAL FEDERAL,DIA Argentina S.A,15,CAÑUELAS,Aceite de Girasol Cañuelas 900 Cc,900.0 cc,2022-08-25,Cluster 1
1076157,1076157,sucursales,1,-34.579057,-58.4249155,1091 - PALERMO,7792180001641,Autoservicio,AR-C,0% de descuento. Precio Promocional Exclusivo DIA en Sucursales Indicadas Hasta Agotar Stock o Finalice Vigencia.,186.37,186.37,,,True,Av Santa Fe 4550 (Palermo) ,Supermercados DIA,CAPITAL FEDERAL,DIA Argentina S.A,15,CAÑUELAS,Aceite de Girasol Cañuelas 900 Cc,900.0 cc,2022-08-25,Cluster 1
1076158,1076158,sucursales,1,-34.5723643,-58.4403118,1092 - NÚÑEZ,7792180001641,Autoservicio,AR-C,0% de descuento. Precio Promocional Exclusivo DIA en Sucursales Indicadas Hasta Agotar Stock o Finalice Vigencia.,186.37,186.37,,,True,Avcabildo 360/368 ,Supermercados DIA,CAPITAL FEDERAL,DIA Argentina S.A,15,CAÑUELAS,Aceite de Girasol Cañuelas 900 Cc,900.0 cc,2022-08-25,Cluster 1
