,Unnamed: 0,key,bandera_id,lat,lng,sucursalnombre,id_,sucursaltipo,provincia,promo1_descripcion,promo1_precio,preciolista,promo2_descripcion,promo2_precio,actualizadohoy,direccion,banderadescripcion,localidad,comerciorazonsocial,comercioid,marca,nombre,presentacion,fecha,Cluster
298,298,sucursales,5,-34.484169,-58.595829,San Fernando,7790070507242,Hipermercado,AR-B,"Llevando este producto, pagás $135.99 hasta  el 24/08/2022. Hasta agotar Stock.",135.99,160.0,,,True,Cno Bancalari E/202 Y Uruguay ,Walmart SuperCenter,SAN FERNANDO,Wal Mart Argentina S.R.L.,11,FAVORITA,Harina 0000 Vitazink Favorita 1 Kg,1.0 kg,2022-08-24,Cluster 0
299,299,sucursales,5,-32.91451,-68.825287,Mendoza (24hs),7790070507242,Hipermercado,AR-M,"Llevando este producto, pagás $136.00 hasta  el 24/08/2022. Hasta agotar Stock.",135.99,166.0,,,True,Moldes 1023,Walmart SuperCenter,VILLANUEVA,Wal Mart Argentina S.R.L.,11,FAVORITA,Harina 0000 Vitazink Favorita 1 Kg,1.0 kg,2022-08-24,Cluster 0
300,300,sucursales,5,-32.850687,-68.858646,Las Heras,7790199000020,Hipermercado,AR-M,"Llevando este producto, pagás $145.00 hasta  el 24/08/2022. Hasta agotar Stock.",144.99,145.06,,,True,Boulogne Sur Mer Y Regalado Olguin ,Walmart SuperCenter,MENDOZA CIUDAD,Wal Mart Argentina S.R.L.,11,MORIXE,Harina de Trigo 0000 Morixe 1 Kg,1.0 kg,2022-08-24,Cluster 1
301,301,sucursales,5,-32.91451,-68.825287,Mendoza (24hs),7790199000020,Hipermercado,AR-M,"Llevando este producto, pagás $136.00 hasta  el 24/08/2022. Hasta agotar Stock.",135.99,145.06,,,True,Moldes 1023,Walmart SuperCenter,VILLANUEVA,Wal Mart Argentina S.R.L.,11,MORIXE,Harina de Trigo 0000 Morixe 1 Kg,1.0 kg,2022-08-24,Cluster 1
1061443,1061443,sucursales,1,-32.426197,-63.738309,1513 - HERNANDO,7792590000227,Autoservicio,AR-X,,,161.13,,,True,Bv Rivadavia 300,Supermercados DIA,CORDOBA,DIA Argentina S.A,15,CASERITA,Harina de Trigo 0000 Caserita 1 Kg,1.0 kg,2022-08-25,Cluster 0
1061959,1061959,sucursales,1,-35.0530892,-58.7606411,39 - CAÑUELAS,7790070507242,Autoservicio,AR-B,,,152.02,,,True,Cl Rivadavia 800,Supermercados DIA,BUENOS AIRES,DIA Argentina S.A,15,FAVORITA,Harina 0000 Vitazink Favorita 1 Kg,1.0 kg,2022-08-25,Cluster 4
1061965,1061965,sucursales,2,-32.868658,-68.852646,Mendoza Sexta,7790070507242,Supermercado,AR-M,,,161.0,,,True,Jorge A. Calle 631,Market,Mendoza,INC S.A.,10,FAVORITA,Harina 0000 Vitazink Favorita 1 Kg,1.0 kg,2022-08-25,Cluster 0
1061970,1061970,sucursales,3,-34.85116,-58.07703,Av. Arana 231,7790199000020,Supermercado,AR-B,,,154.0,,,True,Av. Arana 231,Express,La Plata,INC S.A.,10,MORIXE,Harina de Trigo 0000 Morixe 1 Kg,1.0 kg,2022-08-25,Cluster 4
1061973,1061973,sucursales,1,-34.6650066,-58.3623175,AVELLANEDA ,7790199000020,Supermercado,AR-B,,,144.99,LLEVANDO ESTE ARTICULO 15% DE DTO CON TARJ. COMUNIDAD COTO CON TARJETAS  EN LINEA DE CAJAS*  CON COMUNIDAD COTO - DEL 23/08/2022 AL 25/08/2022 O HASTA AGOTAR STOCK DE 17700 UNI,123.24,True,Italia 62,COTO CICSA,Avellaneda,Coto Centro Integral de Comercialización S.A.,12,MORIXE,Harina de Trigo 0000 Morixe 1 Kg,1.0 kg,2022-08-25,Cluster 1
1061974,1061974,sucursales,1,-34.7437163,-58.2891868,QUILMES ,7790199000020,Supermercado,AR-B,,,144.99,LLEVANDO ESTE ARTICULO 15% DE DTO CON TARJ. COMUNIDAD COTO CON TARJETAS  EN LINEA DE CAJAS*  CON COMUNIDAD COTO - DEL 23/08/2022 AL 25/08/2022 O HASTA AGOTAR STOCK DE 17700 UNI,123.24,True,12 De Octubre 3054,COTO CICSA,Quilmes,Coto Centro Integral de Comercialización S.A.,12,MORIXE,Harina de Trigo 0000 Morixe 1 Kg,1.0 kg,2022-08-25,Cluster 1
1061975,1061975,sucursales,1,-34.814703,-58.456994,MONTE GRANDE ,7790199000020,Hipermercado,AR-B,,,144.99,LLEVANDO ESTE ARTICULO 15% DE DTO CON TARJ. COMUNIDAD COTO CON TARJETAS  EN LINEA DE CAJAS*  CON COMUNIDAD COTO - DEL 23/08/2022 AL 25/08/2022 O HASTA AGOTAR STOCK DE 17700 UNI,123.24,True,Boulevar Bs. As. 710,COTO CICSA,Monte Grande,Coto Centro Integral de Comercialización S.A.,12,MORIXE,Harina de Trigo 0000 Morixe 1 Kg,1.0 kg,2022-08-25,Cluster 1
1061976,1061976,sucursales,1,-34.7817272,-58.4067065,TEMPERLEY ,7790199000020,Hipermercado,AR-B,,,144.99,LLEVANDO ESTE ARTICULO 15% DE DTO CON TARJ. COMUNIDAD COTO CON TARJETAS  EN LINEA DE CAJAS*  CON COMUNIDAD COTO - DEL 23/08/2022 AL 25/08/2022 O HASTA AGOTAR STOCK DE 17700 UNI,123.24,True,Hipolito Irigoyen 10699,COTO CICSA,Lomas De Zamora,Coto Centro Integral de Comercialización S.A.,12,MORIXE,Harina de Trigo 0000 Morixe 1 Kg,1.0 kg,2022-08-25,Cluster 1
1061977,1061977,sucursales,1,-34.5458941,-58.4705622,CABILDO ,7790199000020,Supermercado,AR-C,,,144.99,LLEVANDO ESTE ARTICULO 15% DE DTO CON TARJ. COMUNIDAD COTO CON TARJETAS  EN LINEA DE CAJAS*  CON COMUNIDAD COTO - DEL 23/08/2022 AL 25/08/2022 O HASTA AGOTAR STOCK DE 17700 UNI,123.24,True,Av. Cabildo 4125,COTO CICSA,Capital Federal,Coto Centro Integral de Comercialización S.A.,12,MORIXE,Harina de Trigo 0000 Morixe 1 Kg,1.0 kg,2022-08-25,Cluster 1
1061978,1061978,sucursales,1,-31.7419371,-60.5387651,PARANA ,7790199000020,Hipermercado,AR-E,,,144.99,LLEVANDO ESTE ARTICULO 15% DE DTO CON TARJ. COMUNIDAD COTO CON TARJETAS  EN LINEA DE CAJAS*  CON COMUNIDAD COTO - DEL 23/08/2022 AL 25/08/2022 O HASTA AGOTAR STOCK DE 17700 UNI,123.24,True,Coronel Juan M. Piran 801,COTO CICSA,Parana,Coto Centro Integral de Comercialización S.A.,12,MORIXE,Harina de Trigo 0000 Morixe 1 Kg,1.0 kg,2022-08-25,Cluster 1
1061979,1061979,sucursales,1,-34.6845178,-58.4641447,LUGANO ,7790199000020,Hipermercado,AR-C,,,144.99,LLEVANDO ESTE ARTICULO 15% DE DTO CON TARJ. COMUNIDAD COTO CON TARJETAS  EN LINEA DE CAJAS*  CON COMUNIDAD COTO - DEL 23/08/2022 AL 25/08/2022 O HASTA AGOTAR STOCK DE 17700 UNI,123.24,True,Soldado De La Frontera 5258,COTO CICSA,V Illa Lugano,Coto Centro Integral de Comercialización S.A.,12,MORIXE,Harina de Trigo 0000 Morixe 1 Kg,1.0 kg,2022-08-25,Cluster 1
1061980,1061980,sucursales,1,-34.5810538,-58.5418252,SAN MARTIN,7790199000020,Supermercado,AR-B,,,144.99,LLEVANDO ESTE ARTICULO 15% DE DTO CON TARJ. COMUNIDAD COTO CON TARJETAS  EN LINEA DE CAJAS*  CON COMUNIDAD COTO - DEL 23/08/2022 AL 25/08/2022 O HASTA AGOTAR STOCK DE 17700 UNI,123.24,True,Av. Balbin 2030,COTO CICSA,San Martin,Coto Centro Integral de Comercialización S.A.,12,MORIXE,Harina de Trigo 0000 Morixe 1 Kg,1.0 kg,2022-08-25,Cluster 1
1061981,1061981,sucursales,1,-34.62116,-58.445992,YERBAL ,7790199000020,Supermercado,AR-C,,,144.99,LLEVANDO ESTE ARTICULO 15% DE DTO CON TARJ. COMUNIDAD COTO CON TARJETAS  EN LINEA DE CAJAS*  CON COMUNIDAD COTO - DEL 23/08/2022 AL 25/08/2022 O HASTA AGOTAR STOCK DE 17700 UNI,123.24,True,Yerbal 1062,COTO CICSA,Caballito,Coto Centro Integral de Comercialización S.A.,12,MORIXE,Harina de Trigo 0000 Morixe 1 Kg,1.0 kg,2022-08-25,Cluster 1
1061982,1061982,sucursales,1,-34.1659506,-58.9611328,CAMPANA ,7790199000020,Supermercado,AR-B,,,144.99,LLEVANDO ESTE ARTICULO 15% DE DTO CON TARJ. COMUNIDAD COTO CON TARJETAS  EN LINEA DE CAJAS*  CON COMUNIDAD COTO - DEL 23/08/2022 AL 25/08/2022 O HASTA AGOTAR STOCK DE 17700 UNI,123.24,True,Juan M. Estrada 878,COTO CICSA,Campana,Coto Centro Integral de Comercialización S.A.,12,MORIXE,Harina de Trigo 0000 Morixe 1 Kg,1.0 kg,2022-08-25,Cluster 1
1061983,1061983,sucursales,1,-31.637308,-60.7017017,SANTA FE ,7790199000020,Hipermercado,AR-S,,,144.99,LLEVANDO ESTE ARTICULO 15% DE DTO CON TARJ. COMUNIDAD COTO CON TARJETAS  EN LINEA DE CAJAS*  CON COMUNIDAD COTO - DEL 23/08/2022 AL 25/08/2022 O HASTA AGOTAR STOCK DE 17700 UNI,123.24,True,Rivadavia 3396,COTO CICSA,Ciudad De Santa Fe,Coto Centro Integral de Comercialización S.A.,12,MORIXE,Harina de Trigo 0000 Morixe 1 Kg,1.0 kg,2022-08-25,Cluster 1
1061984,1061984,sucursales,1,-34.671088,-58.47915,LARRAZABAL ,7790199000020,Supermercado,AR-C,,,144.99,LLEVANDO ESTE ARTICULO 15% DE DTO CON TARJ. COMUNIDAD COTO CON TARJETAS  EN LINEA DE CAJAS*  CON COMUNIDAD COTO - DEL 23/08/2022 AL 25/08/2022 O HASTA AGOTAR STOCK DE 17700 UNI,123.24,True,Larrazabal 3443,COTO CICSA,Lugano,Coto Centro Integral de Comercialización S.A.,12,MORIXE,Harina de Trigo 0000 Morixe 1 Kg,1.0 kg,2022-08-25,Cluster 1
1061985,1061985,sucursales,1,-34.5715475,-58.6833252,BELLA VISTA ,7790199000020,Supermercado,AR-B,,,144.99,LLEVANDO ESTE ARTICULO 15% DE DTO CON TARJ. COMUNIDAD COTO CON TARJETAS  EN LINEA DE CAJAS*  CON COMUNIDAD COTO - DEL 23/08/2022 AL 25/08/2022 O HASTA AGOTAR STOCK DE 17700 UNI,123.24,True,O Higgins 1263,COTO CICSA,Bella Vista,Coto Centro Integral de Comercialización S.A.,12,MORIXE,Harina de Trigo 0000 Morixe 1 Kg,1.0 kg,2022-08-25,Cluster 1
1061986,1061986,sucursales,1,-34.6230367,-58.3959072,SAN JUAN ,7790199000020,Hipermercado,AR-C,,,144.99,LLEVANDO ESTE ARTICULO 15% DE DTO CON TARJ. COMUNIDAD COTO CON TARJETAS  EN LINEA DE CAJAS*  CON COMUNIDAD COTO - DEL 23/08/2022 AL 25/08/2022 O HASTA AGOTAR STOCK DE 17700 UNI,123.24,True,Av. San Juan 2168,COTO CICSA,Capital Federal,Coto Centro Integral de Comercialización S.A.,12,MORIXE,Harina de Trigo 0000 Morixe 1 Kg,1.0 kg,2022-08-25,Cluster 1
1061987,1061987,sucursales,1,-34.623834,-58.512072,LOPE DE VEGA ,7790199000020,Supermercado,AR-C,,,144.99,LLEVANDO ESTE ARTICULO 15% DE DTO CON TARJ. COMUNIDAD COTO CON TARJETAS  EN LINEA DE CAJAS*  CON COMUNIDAD COTO - DEL 23/08/2022 AL 25/08/2022 O HASTA AGOTAR STOCK DE 17700 UNI,123.24,True,Lope De Vega 1742,COTO CICSA,Cdad. De Bs.As,Coto Centro Integral de Comercialización S.A.,12,MORIXE,Harina de Trigo 0000 Morixe 1 Kg,1.0 kg,2022-08-25,Cluster 1
1061988,1061988,sucursales,1,-34.6287238,-58.5488933,CIUDADELA ,7790199000020,Hipermercado,AR-B,,,144.99,LLEVANDO ESTE ARTICULO 15% DE DTO CON TARJ. COMUNIDAD COTO CON TARJETAS  EN LINEA DE CAJAS*  CON COMUNIDAD COTO - DEL 23/08/2022 AL 25/08/2022 O HASTA AGOTAR STOCK DE 17700 UNI,123.24,True,Comesaña 4056,COTO CICSA,Ciudadela,Coto Centro Integral de Comercialización S.A.,12,MORIXE,Harina de Trigo 0000 Morixe 1 Kg,1.0 kg,2022-08-25,Cluster 1
1061989,1061989,sucursales,1,-34.764146,-58.6200547,RUTA 3 ,7790199000020,Supermercado,AR-B,,,144.99,LLEVANDO ESTE ARTICULO 15% DE DTO CON TARJ. COMUNIDAD COTO CON TARJETAS  EN LINEA DE CAJAS*  CON COMUNIDAD COTO - DEL 23/08/2022 AL 25/08/2022 O HASTA AGOTAR STOCK DE 17700 UNI,123.24,True,Av. Brig. Gral. Juan Manuel De Rosas 14457,COTO CICSA,Gonzalez Catan,Coto Centro Integral de Comercialización S.A.,12,MORIXE,Harina de Trigo 0000 Morixe 1 Kg,1.0 kg,2022-08-25,Cluster 1
1061990,1061990,sucursales,1,-34.719142,-58.2913273,BERNAL ,7790199000020,Supermercado,AR-B,,,144.99,LLEVANDO ESTE ARTICULO 15% DE DTO CON TARJ. COMUNIDAD COTO CON TARJETAS  EN LINEA DE CAJAS*  CON COMUNIDAD COTO - DEL 23/08/2022 AL 25/08/2022 O HASTA AGOTAR STOCK DE 17700 UNI,123.24,True,Av. Dardo Rocha 251,COTO CICSA,Bernal,Coto Centro Integral de Comercialización S.A.,12,MORIXE,Harina de Trigo 0000 Morixe 1 Kg,1.0 kg,2022-08-25,Cluster 1
1061991,1061991,sucursales,1,-34.519576,-58.7531003,JOSE C. PAZ ,7790199000020,Hipermercado,AR-B,,,144.99,LLEVANDO ESTE ARTICULO 15% DE DTO CON TARJ. COMUNIDAD COTO CON TARJETAS  EN LINEA DE CAJAS*  CON COMUNIDAD COTO - DEL 23/08/2022 AL 25/08/2022 O HASTA AGOTAR STOCK DE 17700 UNI,123.24,True,Hipolito Yrigoyen 1826,COTO CICSA,Jose C Paz,Coto Centro Integral de Comercialización S.A.,12,MORIXE,Harina de Trigo 0000 Morixe 1 Kg,1.0 kg,2022-08-25,Cluster 1
1061992,1061992,sucursales,1,-34.6259327,-58.4355294,PEDRO GOYENA ,7790199000020,Supermercado,AR-C,,,144.99,LLEVANDO ESTE ARTICULO 15% DE DTO CON TARJ. COMUNIDAD COTO CON TARJETAS  EN LINEA DE CAJAS*  CON COMUNIDAD COTO - DEL 23/08/2022 AL 25/08/2022 O HASTA AGOTAR STOCK DE 17700 UNI,123.24,True,Pedro Goyena 565,COTO CICSA,Capital Federal,Coto Centro Integral de Comercialización S.A.,12,MORIXE,Harina de Trigo 0000 Morixe 1 Kg,1.0 kg,2022-08-25,Cluster 1
1061993,1061993,sucursales,1,-34.9132587,-57.9601721,LA PLATA ,7790199000020,Supermercado,AR-B,,,144.99,LLEVANDO ESTE ARTICULO 15% DE DTO CON TARJ. COMUNIDAD COTO CON TARJETAS  EN LINEA DE CAJAS*  CON COMUNIDAD COTO - DEL 23/08/2022 AL 25/08/2022 O HASTA AGOTAR STOCK DE 17700 UNI,123.24,True,Calle 43 782,COTO CICSA,La Plata,Coto Centro Integral de Comercialización S.A.,12,MORIXE,Harina de Trigo 0000 Morixe 1 Kg,1.0 kg,2022-08-25,Cluster 1
1061994,1061994,sucursales,1,-34.6358296,-58.4415417,ASAMBLEA ,7790199000020,Supermercado,AR-C,,,144.99,LLEVANDO ESTE ARTICULO 15% DE DTO CON TARJ. COMUNIDAD COTO CON TARJETAS  EN LINEA DE CAJAS*  CON COMUNIDAD COTO - DEL 23/08/2022 AL 25/08/2022 O HASTA AGOTAR STOCK DE 17700 UNI,123.24,True,Asamblea 1100,COTO CICSA,Parque Chacabuco,Coto Centro Integral de Comercialización S.A.,12,MORIXE,Harina de Trigo 0000 Morixe 1 Kg,1.0 kg,2022-08-25,Cluster 1
1061995,1061995,sucursales,1,-34.6073757,-58.477492,JONTE ,7790199000020,Supermercado,AR-C,,,144.99,LLEVANDO ESTE ARTICULO 15% DE DTO CON TARJ. COMUNIDAD COTO CON TARJETAS  EN LINEA DE CAJAS*  CON COMUNIDAD COTO - DEL 23/08/2022 AL 25/08/2022 O HASTA AGOTAR STOCK DE 17700 UNI,123.24,True,Av. Alvarez Jonte 2502,COTO CICSA,Capital Federal,Coto Centro Integral de Comercialización S.A.,12,MORIXE,Harina de Trigo 0000 Morixe 1 Kg,1.0 kg,2022-08-25,Cluster 1
1061996,1061996,sucursales,1,-34.3456017,-58.7928537,ESCOBAR ,7790199000020,Supermercado,AR-B,,,144.99,LLEVANDO ESTE ARTICULO 15% DE DTO CON TARJ. COMUNIDAD COTO CON TARJETAS  EN LINEA DE CAJAS*  CON COMUNIDAD COTO - DEL 23/08/2022 AL 25/08/2022 O HASTA AGOTAR STOCK DE 17700 UNI,123.24,True,Tapia De Cruz 420,COTO CICSA,Escobar,Coto Centro Integral de Comercialización S.A.,12,MORIXE,Harina de Trigo 0000 Morixe 1 Kg,1.0 kg,2022-08-25,Cluster 1
1061997,1061997,sucursales,1,-34.419958,-58.794678,155 HIGHLAND PARK ,7790199000020,Supermercado,AR-B,,,144.99,LLEVANDO ESTE ARTICULO 15% DE DTO CON TARJ. COMUNIDAD COTO CON TARJETAS  EN LINEA DE CAJAS*  CON COMUNIDAD COTO - DEL 23/08/2022 AL 25/08/2022 O HASTA AGOTAR STOCK DE 17700 UNI,123.24,True,Country Highland Park ,COTO CICSA,Pilar,Coto Centro Integral de Comercialización S.A.,12,MORIXE,Harina de Trigo 0000 Morixe 1 Kg,1.0 kg,2022-08-25,Cluster 1
1061998,1061998,sucursales,1,-34.5924706,-58.4111036,CHARCAS ,7790199000020,Hipermercado,AR-C,,,144.99,LLEVANDO ESTE ARTICULO 15% DE DTO CON TARJ. COMUNIDAD COTO CON TARJETAS  EN LINEA DE CAJAS*  CON COMUNIDAD COTO - DEL 23/08/2022 AL 25/08/2022 O HASTA AGOTAR STOCK DE 17700 UNI,123.24,True,Charcas 2980,COTO CICSA,Capital Federal,Coto Centro Integral de Comercialización S.A.,12,MORIXE,Harina de Trigo 0000 Morixe 1 Kg,1.0 kg,2022-08-25,Cluster 1
1061999,1061999,sucursales,1,-34.6077047,-58.3879012,MITRE ,7790199000020,Supermercado,AR-C,,,144.99,LLEVANDO ESTE ARTICULO 15% DE DTO CON TARJ. COMUNIDAD COTO CON TARJETAS  EN LINEA DE CAJAS*  CON COMUNIDAD COTO - DEL 23/08/2022 AL 25/08/2022 O HASTA AGOTAR STOCK DE 17700 UNI,123.24,True,Bartolomé Mitre 1558,COTO CICSA,Capital Federal,Coto Centro Integral de Comercialización S.A.,12,MORIXE,Harina de Trigo 0000 Morixe 1 Kg,1.0 kg,2022-08-25,Cluster 1
1062000,1062000,sucursales,1,-34.5850445,-58.372698,SADOS ,7790199000020,Hipermercado,AR-C,,,144.99,LLEVANDO ESTE ARTICULO 15% DE DTO CON TARJ. COMUNIDAD COTO CON TARJETAS  EN LINEA DE CAJAS*  CON COMUNIDAD COTO - DEL 23/08/2022 AL 25/08/2022 O HASTA AGOTAR STOCK DE 17700 UNI,123.24,True,Av. Antartica Argentina 1160,COTO CICSA,Capital Federal,Coto Centro Integral de Comercialización S.A.,12,MORIXE,Harina de Trigo 0000 Morixe 1 Kg,1.0 kg,2022-08-25,Cluster 1
1062001,1062001,sucursales,1,-34.4620027,-58.7601993,TORTUGUITAS ,7790199000020,Supermercado,AR-B,,,144.99,LLEVANDO ESTE ARTICULO 15% DE DTO CON TARJ. COMUNIDAD COTO CON TARJETAS  EN LINEA DE CAJAS*  CON COMUNIDAD COTO - DEL 23/08/2022 AL 25/08/2022 O HASTA AGOTAR STOCK DE 17700 UNI,123.24,True,Tortugas Country Club ,COTO CICSA,Pilar,Coto Centro Integral de Comercialización S.A.,12,MORIXE,Harina de Trigo 0000 Morixe 1 Kg,1.0 kg,2022-08-25,Cluster 1
1062002,1062002,sucursales,1,-34.5960054,-58.3973971,JUNIN ,7790199000020,Supermercado,AR-C,,,144.99,LLEVANDO ESTE ARTICULO 15% DE DTO CON TARJ. COMUNIDAD COTO CON TARJETAS  EN LINEA DE CAJAS*  CON COMUNIDAD COTO - DEL 23/08/2022 AL 25/08/2022 O HASTA AGOTAR STOCK DE 17700 UNI,123.24,True,Junín 1073,COTO CICSA,Capital Federal,Coto Centro Integral de Comercialización S.A.,12,MORIXE,Harina de Trigo 0000 Morixe 1 Kg,1.0 kg,2022-08-25,Cluster 1
1062004,1062004,sucursales,1,-34.5553723,-58.5583111,VILLA BALLESTER ,7790199000020,Supermercado,AR-B,,,144.99,LLEVANDO ESTE ARTICULO 15% DE DTO CON TARJ. COMUNIDAD COTO CON TARJETAS  EN LINEA DE CAJAS*  CON COMUNIDAD COTO - DEL 23/08/2022 AL 25/08/2022 O HASTA AGOTAR STOCK DE 17700 UNI,123.24,True,Jose Hernandez 2955,COTO CICSA,Villa Ballester,Coto Centro Integral de Comercialización S.A.,12,MORIXE,Harina de Trigo 0000 Morixe 1 Kg,1.0 kg,2022-08-25,Cluster 1
1062005,1062005,sucursales,1,-32.9265135,-60.6720475,ROSARIO TALLERES ,7790199000020,Hipermercado,AR-S,,,144.99,LLEVANDO ESTE ARTICULO 15% DE DTO CON TARJ. COMUNIDAD COTO CON TARJETAS  EN LINEA DE CAJAS*  CON COMUNIDAD COTO - DEL 23/08/2022 AL 25/08/2022 O HASTA AGOTAR STOCK DE 17700 UNI,123.24,True,Av. Junin 590,COTO CICSA,Rosario,Coto Centro Integral de Comercialización S.A.,12,MORIXE,Harina de Trigo 0000 Morixe 1 Kg,1.0 kg,2022-08-25,Cluster 1
1062006,1062006,sucursales,1,-34.6189821,-58.4754368,NAZCA ,7790199000020,Supermercado,AR-C,,,144.99,LLEVANDO ESTE ARTICULO 15% DE DTO CON TARJ. COMUNIDAD COTO CON TARJETAS  EN LINEA DE CAJAS*  CON COMUNIDAD COTO - DEL 23/08/2022 AL 25/08/2022 O HASTA AGOTAR STOCK DE 17700 UNI,123.24,True,Av. Nazca 1244,COTO CICSA,Capital Federal,Coto Centro Integral de Comercialización S.A.,12,MORIXE,Harina de Trigo 0000 Morixe 1 Kg,1.0 kg,2022-08-25,Cluster 1
1062007,1062007,sucursales,1,-34.5951411,-58.443905,VILLA CRESPO ,7790199000020,Supermercado,AR-C,,,144.99,LLEVANDO ESTE ARTICULO 15% DE DTO CON TARJ. COMUNIDAD COTO CON TARJETAS  EN LINEA DE CAJAS*  CON COMUNIDAD COTO - DEL 23/08/2022 AL 25/08/2022 O HASTA AGOTAR STOCK DE 17700 UNI,123.24,True,Av. Corrientes 5748,COTO CICSA,Capital Federal,Coto Centro Integral de Comercialización S.A.,12,MORIXE,Harina de Trigo 0000 Morixe 1 Kg,1.0 kg,2022-08-25,Cluster 1
1062008,1062008,sucursales,1,-34.5491869,-58.4544449,LIBERTADOR ,7790199000020,Supermercado,AR-C,,,144.99,LLEVANDO ESTE ARTICULO 15% DE DTO CON TARJ. COMUNIDAD COTO CON TARJETAS  EN LINEA DE CAJAS*  CON COMUNIDAD COTO - DEL 23/08/2022 AL 25/08/2022 O HASTA AGOTAR STOCK DE 17700 UNI,123.24,True,Av. Libertador 6840,COTO CICSA,Capital Federal,Coto Centro Integral de Comercialización S.A.,12,MORIXE,Harina de Trigo 0000 Morixe 1 Kg,1.0 kg,2022-08-25,Cluster 1
1062009,1062009,sucursales,1,-34.893323,-58.571979,TRISTAN SUAREZ ,7790199000020,Hipermercado,AR-B,,,144.99,LLEVANDO ESTE ARTICULO 15% DE DTO CON TARJ. COMUNIDAD COTO CON TARJETAS  EN LINEA DE CAJAS*  CON COMUNIDAD COTO - DEL 23/08/2022 AL 25/08/2022 O HASTA AGOTAR STOCK DE 17700 UNI,123.24,True,Avda. Sarmiento 524,COTO CICSA,Ezeiza,Coto Centro Integral de Comercialización S.A.,12,MORIXE,Harina de Trigo 0000 Morixe 1 Kg,1.0 kg,2022-08-25,Cluster 1
1062010,1062010,sucursales,1,-34.5728529,-58.4878818, CULLEN ,7790199000020,Supermercado,AR-C,,,144.99,LLEVANDO ESTE ARTICULO 15% DE DTO CON TARJ. COMUNIDAD COTO CON TARJETAS  EN LINEA DE CAJAS*  CON COMUNIDAD COTO - DEL 23/08/2022 AL 25/08/2022 O HASTA AGOTAR STOCK DE 17700 UNI,123.24,True,Cullen 5085,COTO CICSA,Capital Federal,Coto Centro Integral de Comercialización S.A.,12,MORIXE,Harina de Trigo 0000 Morixe 1 Kg,1.0 kg,2022-08-25,Cluster 1
1062011,1062011,sucursales,1,-34.6071216,-58.3960221, PTE. PERON ,7790199000020,Supermercado,AR-C,,,144.99,LLEVANDO ESTE ARTICULO 15% DE DTO CON TARJ. COMUNIDAD COTO CON TARJETAS  EN LINEA DE CAJAS*  CON COMUNIDAD COTO - DEL 23/08/2022 AL 25/08/2022 O HASTA AGOTAR STOCK DE 17700 UNI,123.24,True,Tte. Gral. Juan D. Perón 2070,COTO CICSA,Capital Federal,Coto Centro Integral de Comercialización S.A.,12,MORIXE,Harina de Trigo 0000 Morixe 1 Kg,1.0 kg,2022-08-25,Cluster 1
1062012,1062012,sucursales,1,-34.5698358,-58.4459054, TEODORO GARCIA ,7790199000020,Supermercado,AR-C,,,144.99,LLEVANDO ESTE ARTICULO 15% DE DTO CON TARJ. COMUNIDAD COTO CON TARJETAS  EN LINEA DE CAJAS*  CON COMUNIDAD COTO - DEL 23/08/2022 AL 25/08/2022 O HASTA AGOTAR STOCK DE 17700 UNI,123.24,True,Teodoro García 2419,COTO CICSA,Capital Federal,Coto Centro Integral de Comercialización S.A.,12,MORIXE,Harina de Trigo 0000 Morixe 1 Kg,1.0 kg,2022-08-25,Cluster 1
1062013,1062013,sucursales,1,-37.185485,-56.951625,MADARIAGA ,7790199000020,Hipermercado,AR-B,,,144.99,LLEVANDO ESTE ARTICULO 15% DE DTO CON TARJ. COMUNIDAD COTO CON TARJETAS  EN LINEA DE CAJAS*  CON COMUNIDAD COTO - DEL 23/08/2022 AL 25/08/2022 O HASTA AGOTAR STOCK DE 17700 UNI,123.24,True,Ruta 11 Km 404,COTO CICSA,Gral Madariaga,Coto Centro Integral de Comercialización S.A.,12,MORIXE,Harina de Trigo 0000 Morixe 1 Kg,1.0 kg,2022-08-25,Cluster 1
1062014,1062014,sucursales,1,-31.6490499,-60.7039408,SANTA FE PUERTO ,7790199000020,Supermercado,AR-S,,,144.99,LLEVANDO ESTE ARTICULO 15% DE DTO CON TARJ. COMUNIDAD COTO CON TARJETAS  EN LINEA DE CAJAS*  CON COMUNIDAD COTO - DEL 23/08/2022 AL 25/08/2022 O HASTA AGOTAR STOCK DE 17700 UNI,123.24,True,27 De Febrero 2320,COTO CICSA,Cuidad De Santa Fe,Coto Centro Integral de Comercialización S.A.,12,MORIXE,Harina de Trigo 0000 Morixe 1 Kg,1.0 kg,2022-08-25,Cluster 1
1062015,1062015,sucursales,1,-34.614634,-58.420517,H.YRIGOYEN ,7790199000020,Supermercado,AR-C,,,144.99,LLEVANDO ESTE ARTICULO 15% DE DTO CON TARJ. COMUNIDAD COTO CON TARJETAS  EN LINEA DE CAJAS*  CON COMUNIDAD COTO - DEL 23/08/2022 AL 25/08/2022 O HASTA AGOTAR STOCK DE 17700 UNI,123.24,True,Hipolito Yrigoyen 3702,COTO CICSA,Once,Coto Centro Integral de Comercialización S.A.,12,MORIXE,Harina de Trigo 0000 Morixe 1 Kg,1.0 kg,2022-08-25,Cluster 1
1062016,1062016,sucursales,1,-34.6316975,-58.4692109,SAN PEDRITO ,7790199000020,Supermercado,AR-C,,,144.99,LLEVANDO ESTE ARTICULO 15% DE DTO CON TARJ. COMUNIDAD COTO CON TARJETAS  EN LINEA DE CAJAS*  CON COMUNIDAD COTO - DEL 23/08/2022 AL 25/08/2022 O HASTA AGOTAR STOCK DE 17700 UNI,123.24,True,Av. San Pedrito 72,COTO CICSA,Capital Federal,Coto Centro Integral de Comercialización S.A.,12,MORIXE,Harina de Trigo 0000 Morixe 1 Kg,1.0 kg,2022-08-25,Cluster 1
1062017,1062017,sucursales,1,-34.5549061,-58.4870293,SAAVEDRA ,7790199000020,Hipermercado,AR-C,,,144.99,LLEVANDO ESTE ARTICULO 15% DE DTO CON TARJ. COMUNIDAD COTO CON TARJETAS  EN LINEA DE CAJAS*  CON COMUNIDAD COTO - DEL 23/08/2022 AL 25/08/2022 O HASTA AGOTAR STOCK DE 17700 UNI,123.24,True,Av. Ricardo Balbín 4027,COTO CICSA,Saavedra,Coto Centro Integral de Comercialización S.A.,12,MORIXE,Harina de Trigo 0000 Morixe 1 Kg,1.0 kg,2022-08-25,Cluster 1
1062021,1062021,sucursales,1,-34.7494248,-58.4002232, BANFIELD ,7790199000020,Supermercado,AR-B,,,144.99,LLEVANDO ESTE ARTICULO 15% DE DTO CON TARJ. COMUNIDAD COTO CON TARJETAS  EN LINEA DE CAJAS*  CON COMUNIDAD COTO - DEL 23/08/2022 AL 25/08/2022 O HASTA AGOTAR STOCK DE 17700 UNI,123.24,True,Av. Hipolito Yrigoyen 8028,COTO CICSA,Banfield,Coto Centro Integral de Comercialización S.A.,12,MORIXE,Harina de Trigo 0000 Morixe 1 Kg,1.0 kg,2022-08-25,Cluster 1
1062022,1062022,sucursales,1,-34.4531158,-58.7307037,TORTUGAS ,7790199000020,Hipermercado,AR-B,,,144.99,LLEVANDO ESTE ARTICULO 15% DE DTO CON TARJ. COMUNIDAD COTO CON TARJETAS  EN LINEA DE CAJAS*  CON COMUNIDAD COTO - DEL 23/08/2022 AL 25/08/2022 O HASTA AGOTAR STOCK DE 17700 UNI,123.24,True,Autopista Panamericana Km. 37.5 1667,COTO CICSA,Malvinas Argentinas,Coto Centro Integral de Comercialización S.A.,12,MORIXE,Harina de Trigo 0000 Morixe 1 Kg,1.0 kg,2022-08-25,Cluster 1
1062023,1062023,sucursales,1,-38.942149918,-68.06446909,NEUQUEN ,7790199000020,Hipermercado,AR-Q,,,153.69,LLEVANDO ESTE ARTICULO 15% DE DTO CON TARJ. COMUNIDAD COTO CON TARJETAS  EN LINEA DE CAJAS*  CON COMUNIDAD COTO - DEL 23/08/2022 AL 25/08/2022 O HASTA AGOTAR STOCK DE 17700 UNI,130.64,True,Dr Ramon 382,COTO CICSA,Neuquen,Coto Centro Integral de Comercialización S.A.,12,MORIXE,Harina de Trigo 0000 Morixe 1 Kg,1.0 kg,2022-08-25,Cluster 4
1062024,1062024,sucursales,1,-34.7269341,-58.3956649,LANUS ,7790199000020,Hipermercado,AR-B,,,144.99,LLEVANDO ESTE ARTICULO 15% DE DTO CON TARJ. COMUNIDAD COTO CON TARJETAS  EN LINEA DE CAJAS*  CON COMUNIDAD COTO - DEL 23/08/2022 AL 25/08/2022 O HASTA AGOTAR STOCK DE 17700 UNI,123.24,True,Av. Hipolito Yrigoyen 6174,COTO CICSA,Lanus,Coto Centro Integral de Comercialización S.A.,12,MORIXE,Harina de Trigo 0000 Morixe 1 Kg,1.0 kg,2022-08-25,Cluster 1
1062025,1062025,sucursales,1,-34.5239629,-58.5208208,MUNRO,7790199000020,Hipermercado,AR-B,,,144.99,LLEVANDO ESTE ARTICULO 15% DE DTO CON TARJ. COMUNIDAD COTO CON TARJETAS  EN LINEA DE CAJAS*  CON COMUNIDAD COTO - DEL 23/08/2022 AL 25/08/2022 O HASTA AGOTAR STOCK DE 17700 UNI,123.24,True,Av. Mitre 2951,COTO CICSA,Vicente Lopez,Coto Centro Integral de Comercialización S.A.,12,MORIXE,Harina de Trigo 0000 Morixe 1 Kg,1.0 kg,2022-08-25,Cluster 1
1062026,1062026,sucursales,1,-34.8440028,-58.507952,EZEIZA ,7790199000020,Hipermercado,AR-B,,,144.99,LLEVANDO ESTE ARTICULO 15% DE DTO CON TARJ. COMUNIDAD COTO CON TARJETAS  EN LINEA DE CAJAS*  CON COMUNIDAD COTO - DEL 23/08/2022 AL 25/08/2022 O HASTA AGOTAR STOCK DE 17700 UNI,123.24,True,Reconquista 1102,COTO CICSA,Ezeiza,Coto Centro Integral de Comercialización S.A.,12,MORIXE,Harina de Trigo 0000 Morixe 1 Kg,1.0 kg,2022-08-25,Cluster 1
1062027,1062027,sucursales,1,-34.626433,-58.382215,CONSTITUCION ,7790199000020,Supermercado,AR-C,,,144.99,LLEVANDO ESTE ARTICULO 15% DE DTO CON TARJ. COMUNIDAD COTO CON TARJETAS  EN LINEA DE CAJAS*  CON COMUNIDAD COTO - DEL 23/08/2022 AL 25/08/2022 O HASTA AGOTAR STOCK DE 17700 UNI,123.24,True,Lima 1553,COTO CICSA,Constitucion,Coto Centro Integral de Comercialización S.A.,12,MORIXE,Harina de Trigo 0000 Morixe 1 Kg,1.0 kg,2022-08-25,Cluster 1
1062028,1062028,sucursales,1,-34.474499,-58.574853,LA HORQUETA ,7790199000020,Hipermercado,AR-B,,,144.99,LLEVANDO ESTE ARTICULO 15% DE DTO CON TARJ. COMUNIDAD COTO CON TARJETAS  EN LINEA DE CAJAS*  CON COMUNIDAD COTO - DEL 23/08/2022 AL 25/08/2022 O HASTA AGOTAR STOCK DE 17700 UNI,123.24,True,Uruguay 4691,COTO CICSA,La Horqueta,Coto Centro Integral de Comercialización S.A.,12,MORIXE,Harina de Trigo 0000 Morixe 1 Kg,1.0 kg,2022-08-25,Cluster 1
1062029,1062029,sucursales,1,-34.4179366,-58.7255946,GARIN ,7790199000020,Hipermercado,AR-B,,,144.99,LLEVANDO ESTE ARTICULO 15% DE DTO CON TARJ. COMUNIDAD COTO CON TARJETAS  EN LINEA DE CAJAS*  CON COMUNIDAD COTO - DEL 23/08/2022 AL 25/08/2022 O HASTA AGOTAR STOCK DE 17700 UNI,123.24,True,Av. Belgrano 950,COTO CICSA,Garin,Coto Centro Integral de Comercialización S.A.,12,MORIXE,Harina de Trigo 0000 Morixe 1 Kg,1.0 kg,2022-08-25,Cluster 1
1062030,1062030,sucursales,1,-34.640349,-58.655782,CASTELAR ,7790199000020,Hipermercado,AR-B,,,144.99,LLEVANDO ESTE ARTICULO 15% DE DTO CON TARJ. COMUNIDAD COTO CON TARJETAS  EN LINEA DE CAJAS*  CON COMUNIDAD COTO - DEL 23/08/2022 AL 25/08/2022 O HASTA AGOTAR STOCK DE 17700 UNI,123.24,True,Santa Rosa 1753,COTO CICSA,Castelar,Coto Centro Integral de Comercialización S.A.,12,MORIXE,Harina de Trigo 0000 Morixe 1 Kg,1.0 kg,2022-08-25,Cluster 1
1062031,1062031,sucursales,1,-34.6048231,-58.4571361,AV.SAN MARTIN,7790199000020,Supermercado,AR-C,,,144.99,LLEVANDO ESTE ARTICULO 15% DE DTO CON TARJ. COMUNIDAD COTO CON TARJETAS  EN LINEA DE CAJAS*  CON COMUNIDAD COTO - DEL 23/08/2022 AL 25/08/2022 O HASTA AGOTAR STOCK DE 17700 UNI,123.24,True,Av. San Martín 2095,COTO CICSA,Paternal,Coto Centro Integral de Comercialización S.A.,12,MORIXE,Harina de Trigo 0000 Morixe 1 Kg,1.0 kg,2022-08-25,Cluster 1
1062032,1062032,sucursales,1,-34.578357,-58.460232,AV EL CANO ,7790199000020,Supermercado,AR-C,,,144.99,LLEVANDO ESTE ARTICULO 15% DE DTO CON TARJ. COMUNIDAD COTO CON TARJETAS  EN LINEA DE CAJAS*  CON COMUNIDAD COTO - DEL 23/08/2022 AL 25/08/2022 O HASTA AGOTAR STOCK DE 17700 UNI,123.24,True,Av. Elcano 3693,COTO CICSA,Belgrano,Coto Centro Integral de Comercialización S.A.,12,MORIXE,Harina de Trigo 0000 Morixe 1 Kg,1.0 kg,2022-08-25,Cluster 1
1062033,1062033,sucursales,1,-36.58216639,-56.71463675,MAR DEL TUYU ,7790199000020,Hipermercado,AR-B,,,144.99,LLEVANDO ESTE ARTICULO 15% DE DTO CON TARJ. COMUNIDAD COTO CON TARJETAS  EN LINEA DE CAJAS*  CON COMUNIDAD COTO - DEL 23/08/2022 AL 25/08/2022 O HASTA AGOTAR STOCK DE 17700 UNI,123.24,True,Ruta 11 Km 330,COTO CICSA,General Lavalle,Coto Centro Integral de Comercialización S.A.,12,MORIXE,Harina de Trigo 0000 Morixe 1 Kg,1.0 kg,2022-08-25,Cluster 1
1062034,1062034,sucursales,1,-34.6668202,-58.703197,MERLO                                                       ,7790199000020,Hipermercado,AR-B,,,144.99,LLEVANDO ESTE ARTICULO 15% DE DTO CON TARJ. COMUNIDAD COTO CON TARJETAS  EN LINEA DE CAJAS*  CON COMUNIDAD COTO - DEL 23/08/2022 AL 25/08/2022 O HASTA AGOTAR STOCK DE 17700 UNI,123.24,True,Av. Juan Domingo Peron 24080,COTO CICSA,San Antonio De Padua,Coto Centro Integral de Comercialización S.A.,12,MORIXE,Harina de Trigo 0000 Morixe 1 Kg,1.0 kg,2022-08-25,Cluster 1
1062035,1062035,sucursales,1,-32.871591,-68.843574,MENDOZA ,7790199000020,Hipermercado,AR-M,,,144.99,LLEVANDO ESTE ARTICULO 15% DE DTO CON TARJ. COMUNIDAD COTO CON TARJETAS  EN LINEA DE CAJAS*  CON COMUNIDAD COTO - DEL 23/08/2022 AL 25/08/2022 O HASTA AGOTAR STOCK DE 17700 UNI,123.24,True,Av. Peru 2760,COTO CICSA,Mendoza,Coto Centro Integral de Comercialización S.A.,12,MORIXE,Harina de Trigo 0000 Morixe 1 Kg,1.0 kg,2022-08-25,Cluster 1
1062036,1062036,sucursales,1,-34.6502131,-58.6264209,MORON ,7790199000020,Hipermercado,AR-B,,,144.99,LLEVANDO ESTE ARTICULO 15% DE DTO CON TARJ. COMUNIDAD COTO CON TARJETAS  EN LINEA DE CAJAS*  CON COMUNIDAD COTO - DEL 23/08/2022 AL 25/08/2022 O HASTA AGOTAR STOCK DE 17700 UNI,123.24,True,Gral. Juan Jose Valle 51,COTO CICSA,Moron,Coto Centro Integral de Comercialización S.A.,12,MORIXE,Harina de Trigo 0000 Morixe 1 Kg,1.0 kg,2022-08-25,Cluster 1
1062039,1062039,sucursales,1,-34.6407405,-58.79411649999,MORENO                                                      ,7790199000020,Hipermercado,AR-B,,,144.99,LLEVANDO ESTE ARTICULO 15% DE DTO CON TARJ. COMUNIDAD COTO CON TARJETAS  EN LINEA DE CAJAS*  CON COMUNIDAD COTO - DEL 23/08/2022 AL 25/08/2022 O HASTA AGOTAR STOCK DE 17700 UNI,123.24,True,Av. Victorica 660,COTO CICSA,Moreno,Coto Centro Integral de Comercialización S.A.,12,MORIXE,Harina de Trigo 0000 Morixe 1 Kg,1.0 kg,2022-08-25,Cluster 1
1062040,1062040,sucursales,1,-34.571895,-58.458683,ELCANO ,7790199000020,Supermercado,AR-C,,,144.99,LLEVANDO ESTE ARTICULO 15% DE DTO CON TARJ. COMUNIDAD COTO CON TARJETAS  EN LINEA DE CAJAS*  CON COMUNIDAD COTO - DEL 23/08/2022 AL 25/08/2022 O HASTA AGOTAR STOCK DE 17700 UNI,123.24,True,Av. Elcano 3002,COTO CICSA,Belgrano,Coto Centro Integral de Comercialización S.A.,12,MORIXE,Harina de Trigo 0000 Morixe 1 Kg,1.0 kg,2022-08-25,Cluster 1
1062041,1062041,sucursales,1,-34.6320834,-58.3760678,BARRACAS,7790199000020,Hipermercado,AR-C,,,144.99,LLEVANDO ESTE ARTICULO 15% DE DTO CON TARJ. COMUNIDAD COTO CON TARJETAS  EN LINEA DE CAJAS*  CON COMUNIDAD COTO - DEL 23/08/2022 AL 25/08/2022 O HASTA AGOTAR STOCK DE 17700 UNI,123.24,True,Gaspar M De Jovellanos 151,COTO CICSA,Caba,Coto Centro Integral de Comercialización S.A.,12,MORIXE,Harina de Trigo 0000 Morixe 1 Kg,1.0 kg,2022-08-25,Cluster 1
1062042,1062042,sucursales,1,-34.5902858,-58.4240622,SCALABRINI ORTIZ ,7790199000020,Supermercado,AR-C,,,144.99,LLEVANDO ESTE ARTICULO 15% DE DTO CON TARJ. COMUNIDAD COTO CON TARJETAS  EN LINEA DE CAJAS*  CON COMUNIDAD COTO - DEL 23/08/2022 AL 25/08/2022 O HASTA AGOTAR STOCK DE 17700 UNI,123.24,True,Av. Scalabrini Ortiz 1688,COTO CICSA,Palermo,Coto Centro Integral de Comercialización S.A.,12,MORIXE,Harina de Trigo 0000 Morixe 1 Kg,1.0 kg,2022-08-25,Cluster 1
1062043,1062043,sucursales,1,-34.6255187,-58.3736292,SAN TELMO ,7790199000020,Supermercado,AR-C,,,144.99,LLEVANDO ESTE ARTICULO 15% DE DTO CON TARJ. COMUNIDAD COTO CON TARJETAS  EN LINEA DE CAJAS*  CON COMUNIDAD COTO - DEL 23/08/2022 AL 25/08/2022 O HASTA AGOTAR STOCK DE 17700 UNI,123.24,True,Perú 1496,COTO CICSA,San Telmo,Coto Centro Integral de Comercialización S.A.,12,MORIXE,Harina de Trigo 0000 Morixe 1 Kg,1.0 kg,2022-08-25,Cluster 1
1062044,1062044,sucursales,1,-34.580229,-58.408608,CERVINO ,7790199000020,Supermercado,AR-C,,,144.99,LLEVANDO ESTE ARTICULO 15% DE DTO CON TARJ. COMUNIDAD COTO CON TARJETAS  EN LINEA DE CAJAS*  CON COMUNIDAD COTO - DEL 23/08/2022 AL 25/08/2022 O HASTA AGOTAR STOCK DE 17700 UNI,123.24,True,Cerviño 3515,COTO CICSA,Palermo,Coto Centro Integral de Comercialización S.A.,12,MORIXE,Harina de Trigo 0000 Morixe 1 Kg,1.0 kg,2022-08-25,Cluster 1
1062045,1062045,sucursales,1,-34.618273,-58.519287,LOPEZ DE VEGA ,7790199000020,Supermercado,AR-C,,,144.99,LLEVANDO ESTE ARTICULO 15% DE DTO CON TARJ. COMUNIDAD COTO CON TARJETAS  EN LINEA DE CAJAS*  CON COMUNIDAD COTO - DEL 23/08/2022 AL 25/08/2022 O HASTA AGOTAR STOCK DE 17700 UNI,123.24,True,Av. Lope De Vega 2503,COTO CICSA,Villa Devoto,Coto Centro Integral de Comercialización S.A.,12,MORIXE,Harina de Trigo 0000 Morixe 1 Kg,1.0 kg,2022-08-25,Cluster 1
1062046,1062046,sucursales,1,-34.687601,-58.47536,LUGANO ,7790199000020,Supermercado,AR-C,,,144.99,LLEVANDO ESTE ARTICULO 15% DE DTO CON TARJ. COMUNIDAD COTO CON TARJETAS  EN LINEA DE CAJAS*  CON COMUNIDAD COTO - DEL 23/08/2022 AL 25/08/2022 O HASTA AGOTAR STOCK DE 17700 UNI,123.24,True,Av. Piedrabuena 4902,COTO CICSA,Lugano,Coto Centro Integral de Comercialización S.A.,12,MORIXE,Harina de Trigo 0000 Morixe 1 Kg,1.0 kg,2022-08-25,Cluster 1
1062047,1062047,sucursales,1,-34.533164,-58.5024536,FLORIDA ,7790199000020,Supermercado,AR-B,,,144.99,LLEVANDO ESTE ARTICULO 15% DE DTO CON TARJ. COMUNIDAD COTO CON TARJETAS  EN LINEA DE CAJAS*  CON COMUNIDAD COTO - DEL 23/08/2022 AL 25/08/2022 O HASTA AGOTAR STOCK DE 17700 UNI,123.24,True,Av. San Martin 3029,COTO CICSA,Florida,Coto Centro Integral de Comercialización S.A.,12,MORIXE,Harina de Trigo 0000 Morixe 1 Kg,1.0 kg,2022-08-25,Cluster 1
1062048,1062048,sucursales,1,-34.656142,-58.524475,EMILIO CASTRO ,7790199000020,Supermercado,AR-C,,,144.99,LLEVANDO ESTE ARTICULO 15% DE DTO CON TARJ. COMUNIDAD COTO CON TARJETAS  EN LINEA DE CAJAS*  CON COMUNIDAD COTO - DEL 23/08/2022 AL 25/08/2022 O HASTA AGOTAR STOCK DE 17700 UNI,123.24,True,Av. Emilio Castro 7661,COTO CICSA,Liniers,Coto Centro Integral de Comercialización S.A.,12,MORIXE,Harina de Trigo 0000 Morixe 1 Kg,1.0 kg,2022-08-25,Cluster 1
1062049,1062049,sucursales,1,-34.6380873,-58.4525728,AV.DEL TRABAJO ,7790199000020,Supermercado,AR-C,,,144.99,LLEVANDO ESTE ARTICULO 15% DE DTO CON TARJ. COMUNIDAD COTO CON TARJETAS  EN LINEA DE CAJAS*  CON COMUNIDAD COTO - DEL 23/08/2022 AL 25/08/2022 O HASTA AGOTAR STOCK DE 17700 UNI,123.24,True,Av. Eva Peron 2202,COTO CICSA,Flores Sur,Coto Centro Integral de Comercialización S.A.,12,MORIXE,Harina de Trigo 0000 Morixe 1 Kg,1.0 kg,2022-08-25,Cluster 1
1062050,1062050,sucursales,1,-34.6087141,-58.4309495,DIAZ VELEZ ,7790199000020,Hipermercado,AR-C,,,144.99,LLEVANDO ESTE ARTICULO 15% DE DTO CON TARJ. COMUNIDAD COTO CON TARJETAS  EN LINEA DE CAJAS*  CON COMUNIDAD COTO - DEL 23/08/2022 AL 25/08/2022 O HASTA AGOTAR STOCK DE 17700 UNI,123.24,True,Av. Diaz Velez 4531,COTO CICSA,Almagro,Coto Centro Integral de Comercialización S.A.,12,MORIXE,Harina de Trigo 0000 Morixe 1 Kg,1.0 kg,2022-08-25,Cluster 1
1062051,1062051,sucursales,1,-34.5970815,-58.4064955,PARAGUAY ,7790199000020,Supermercado,AR-C,,,144.99,LLEVANDO ESTE ARTICULO 15% DE DTO CON TARJ. COMUNIDAD COTO CON TARJETAS  EN LINEA DE CAJAS*  CON COMUNIDAD COTO - DEL 23/08/2022 AL 25/08/2022 O HASTA AGOTAR STOCK DE 17700 UNI,123.24,True,Paraguay 2672,COTO CICSA,Barrio Norte,Coto Centro Integral de Comercialización S.A.,12,MORIXE,Harina de Trigo 0000 Morixe 1 Kg,1.0 kg,2022-08-25,Cluster 1
1062052,1062052,sucursales,1,-34.6221132,-58.4164336,BOEDO ,7790199000020,Hipermercado,AR-C,,,144.99,LLEVANDO ESTE ARTICULO 15% DE DTO CON TARJ. COMUNIDAD COTO CON TARJETAS  EN LINEA DE CAJAS*  CON COMUNIDAD COTO - DEL 23/08/2022 AL 25/08/2022 O HASTA AGOTAR STOCK DE 17700 UNI,123.24,True,Av. Boedo 777,COTO CICSA,Boedo,Coto Centro Integral de Comercialización S.A.,12,MORIXE,Harina de Trigo 0000 Morixe 1 Kg,1.0 kg,2022-08-25,Cluster 1
1062053,1062053,sucursales,1,-34.5635828,-58.4684123,MONROE ,7790199000020,Supermercado,AR-C,,,144.99,LLEVANDO ESTE ARTICULO 15% DE DTO CON TARJ. COMUNIDAD COTO CON TARJETAS  EN LINEA DE CAJAS*  CON COMUNIDAD COTO - DEL 23/08/2022 AL 25/08/2022 O HASTA AGOTAR STOCK DE 17700 UNI,123.24,True,Av. Monroe 3284,COTO CICSA,Belgrano,Coto Centro Integral de Comercialización S.A.,12,MORIXE,Harina de Trigo 0000 Morixe 1 Kg,1.0 kg,2022-08-25,Cluster 1
1062054,1062054,sucursales,1,-34.5713409,-58.4420995,CABILDO ,7790199000020,Hipermercado,AR-C,,,144.99,LLEVANDO ESTE ARTICULO 15% DE DTO CON TARJ. COMUNIDAD COTO CON TARJETAS  EN LINEA DE CAJAS*  CON COMUNIDAD COTO - DEL 23/08/2022 AL 25/08/2022 O HASTA AGOTAR STOCK DE 17700 UNI,123.24,True,Av. Cabildo 545,COTO CICSA,Belgrano,Coto Centro Integral de Comercialización S.A.,12,MORIXE,Harina de Trigo 0000 Morixe 1 Kg,1.0 kg,2022-08-25,Cluster 1
1062055,1062055,sucursales,1,-34.6101883,-58.406752,ONCE ,7790199000020,Supermercado,AR-C,,,144.99,LLEVANDO ESTE ARTICULO 15% DE DTO CON TARJ. COMUNIDAD COTO CON TARJETAS  EN LINEA DE CAJAS*  CON COMUNIDAD COTO - DEL 23/08/2022 AL 25/08/2022 O HASTA AGOTAR STOCK DE 17700 UNI,123.24,True,Av. Rivadavia 2846,COTO CICSA,Once,Coto Centro Integral de Comercialización S.A.,12,MORIXE,Harina de Trigo 0000 Morixe 1 Kg,1.0 kg,2022-08-25,Cluster 1
1062056,1062056,sucursales,1,-34.5628202,-58.4588525,AMENABAR ,7790199000020,Hipermercado,AR-C,,,144.99,LLEVANDO ESTE ARTICULO 15% DE DTO CON TARJ. COMUNIDAD COTO CON TARJETAS  EN LINEA DE CAJAS*  CON COMUNIDAD COTO - DEL 23/08/2022 AL 25/08/2022 O HASTA AGOTAR STOCK DE 17700 UNI,123.24,True,Amenabar 2134,COTO CICSA,Belgrano,Coto Centro Integral de Comercialización S.A.,12,MORIXE,Harina de Trigo 0000 Morixe 1 Kg,1.0 kg,2022-08-25,Cluster 1
1062057,1062057,sucursales,1,-34.634479,-58.4640708,DIRECTORIO ,7790199000020,Supermercado,AR-C,,,144.99,LLEVANDO ESTE ARTICULO 15% DE DTO CON TARJ. COMUNIDAD COTO CON TARJETAS  EN LINEA DE CAJAS*  CON COMUNIDAD COTO - DEL 23/08/2022 AL 25/08/2022 O HASTA AGOTAR STOCK DE 17700 UNI,123.24,True,Av. Directorio 2647,COTO CICSA,Flores,Coto Centro Integral de Comercialización S.A.,12,MORIXE,Harina de Trigo 0000 Morixe 1 Kg,1.0 kg,2022-08-25,Cluster 1
1062058,1062058,sucursales,1,-36.7214462,-56.6768593,MAR DE AJO ,7790199000020,Hipermercado,AR-B,,,144.99,LLEVANDO ESTE ARTICULO 15% DE DTO CON TARJ. COMUNIDAD COTO CON TARJETAS  EN LINEA DE CAJAS*  CON COMUNIDAD COTO - DEL 23/08/2022 AL 25/08/2022 O HASTA AGOTAR STOCK DE 17700 UNI,123.24,True,San Martin 251,COTO CICSA,Mar De Ajo,Coto Centro Integral de Comercialización S.A.,12,MORIXE,Harina de Trigo 0000 Morixe 1 Kg,1.0 kg,2022-08-25,Cluster 1
1062059,1062059,sucursales,1,-34.6402654,-58.5617807,RAMOS MEJIA ,7790199000020,Hipermercado,AR-B,,,144.99,LLEVANDO ESTE ARTICULO 15% DE DTO CON TARJ. COMUNIDAD COTO CON TARJETAS  EN LINEA DE CAJAS*  CON COMUNIDAD COTO - DEL 23/08/2022 AL 25/08/2022 O HASTA AGOTAR STOCK DE 17700 UNI,123.24,True,Av. Rivadavia 13810,COTO CICSA,Ramos Mejia,Coto Centro Integral de Comercialización S.A.,12,MORIXE,Harina de Trigo 0000 Morixe 1 Kg,1.0 kg,2022-08-25,Cluster 1
1062060,1062060,sucursales,1,-34.6062442,-58.5106551,SANABRIA ,7790199000020,Supermercado,AR-C,,,144.99,LLEVANDO ESTE ARTICULO 15% DE DTO CON TARJ. COMUNIDAD COTO CON TARJETAS  EN LINEA DE CAJAS*  CON COMUNIDAD COTO - DEL 23/08/2022 AL 25/08/2022 O HASTA AGOTAR STOCK DE 17700 UNI,123.24,True,Sanabria 3320,COTO CICSA,Devoto,Coto Centro Integral de Comercialización S.A.,12,MORIXE,Harina de Trigo 0000 Morixe 1 Kg,1.0 kg,2022-08-25,Cluster 1
1062061,1062061,sucursales,1,-34.6002123,-58.5446567,SANTOS LUGARES ,7790199000020,Supermercado,AR-B,,,144.99,LLEVANDO ESTE ARTICULO 15% DE DTO CON TARJ. COMUNIDAD COTO CON TARJETAS  EN LINEA DE CAJAS*  CON COMUNIDAD COTO - DEL 23/08/2022 AL 25/08/2022 O HASTA AGOTAR STOCK DE 17700 UNI,123.24,True,Av. La Plata 3635,COTO CICSA,Santos Lugares,Coto Centro Integral de Comercialización S.A.,12,MORIXE,Harina de Trigo 0000 Morixe 1 Kg,1.0 kg,2022-08-25,Cluster 1
1062062,1062062,sucursales,1,-34.6290437,-58.481691,AVELLANEDA ,7790199000020,Supermercado,AR-C,,,144.99,LLEVANDO ESTE ARTICULO 15% DE DTO CON TARJ. COMUNIDAD COTO CON TARJETAS  EN LINEA DE CAJAS*  CON COMUNIDAD COTO - DEL 23/08/2022 AL 25/08/2022 O HASTA AGOTAR STOCK DE 17700 UNI,123.24,True,Av. Avellaneda 3758,COTO CICSA,Floresta,Coto Centro Integral de Comercialización S.A.,12,MORIXE,Harina de Trigo 0000 Morixe 1 Kg,1.0 kg,2022-08-25,Cluster 1
1062063,1062063,sucursales,1,-34.5941284,-58.417548,HONDURAS ,7790199000020,Hipermercado,AR-C,,,144.99,LLEVANDO ESTE ARTICULO 15% DE DTO CON TARJ. COMUNIDAD COTO CON TARJETAS  EN LINEA DE CAJAS*  CON COMUNIDAD COTO - DEL 23/08/2022 AL 25/08/2022 O HASTA AGOTAR STOCK DE 17700 UNI,123.24,True,Honduras 3862,COTO CICSA,Palermo,Coto Centro Integral de Comercialización S.A.,12,MORIXE,Harina de Trigo 0000 Morixe 1 Kg,1.0 kg,2022-08-25,Cluster 1
1062064,1062064,sucursales,1,-34.5791981,-58.5361636,SAN MARTIN ,7790199000020,Supermercado,AR-B,,,144.99,LLEVANDO ESTE ARTICULO 15% DE DTO CON TARJ. COMUNIDAD COTO CON TARJETAS  EN LINEA DE CAJAS*  CON COMUNIDAD COTO - DEL 23/08/2022 AL 25/08/2022 O HASTA AGOTAR STOCK DE 17700 UNI,123.24,True,San Martin 122,COTO CICSA,San Martin,Coto Centro Integral de Comercialización S.A.,12,MORIXE,Harina de Trigo 0000 Morixe 1 Kg,1.0 kg,2022-08-25,Cluster 1
1062065,1062065,sucursales,1,-34.6006805,-58.3891667,VIAMONTE ,7790199000020,Hipermercado,AR-C,,,144.99,LLEVANDO ESTE ARTICULO 15% DE DTO CON TARJ. COMUNIDAD COTO CON TARJETAS  EN LINEA DE CAJAS*  CON COMUNIDAD COTO - DEL 23/08/2022 AL 25/08/2022 O HASTA AGOTAR STOCK DE 17700 UNI,123.24,True,Viamonte 1571,COTO CICSA,Tribunales,Coto Centro Integral de Comercialización S.A.,12,MORIXE,Harina de Trigo 0000 Morixe 1 Kg,1.0 kg,2022-08-25,Cluster 1
1062068,1062068,sucursales,1,-34.5740766,-58.4859548,URQUIZA ,7790199000020,Supermercado,AR-C,,,144.99,LLEVANDO ESTE ARTICULO 15% DE DTO CON TARJ. COMUNIDAD COTO CON TARJETAS  EN LINEA DE CAJAS*  CON COMUNIDAD COTO - DEL 23/08/2022 AL 25/08/2022 O HASTA AGOTAR STOCK DE 17700 UNI,123.24,True,Av. Monroe 5055,COTO CICSA,Villa Urquiza,Coto Centro Integral de Comercialización S.A.,12,MORIXE,Harina de Trigo 0000 Morixe 1 Kg,1.0 kg,2022-08-25,Cluster 1
1062069,1062069,sucursales,1,-34.64267,-58.422711,AV. LA PLATA ,7790199000020,Supermercado,AR-C,,,144.99,LLEVANDO ESTE ARTICULO 15% DE DTO CON TARJ. COMUNIDAD COTO CON TARJETAS  EN LINEA DE CAJAS*  CON COMUNIDAD COTO - DEL 23/08/2022 AL 25/08/2022 O HASTA AGOTAR STOCK DE 17700 UNI,123.24,True,Av. La Plata 2392,COTO CICSA,Pompeya,Coto Centro Integral de Comercialización S.A.,12,MORIXE,Harina de Trigo 0000 Morixe 1 Kg,1.0 kg,2022-08-25,Cluster 1
1062070,1062070,sucursales,1,-34.6281676,-58.453314,ALBERDI ,7790199000020,Hipermercado,AR-C,,,144.99,LLEVANDO ESTE ARTICULO 15% DE DTO CON TARJ. COMUNIDAD COTO CON TARJETAS  EN LINEA DE CAJAS*  CON COMUNIDAD COTO - DEL 23/08/2022 AL 25/08/2022 O HASTA AGOTAR STOCK DE 17700 UNI,123.24,True,Av.  J.B. Alberdi 1737,COTO CICSA,Flores,Coto Centro Integral de Comercialización S.A.,12,MORIXE,Harina de Trigo 0000 Morixe 1 Kg,1.0 kg,2022-08-25,Cluster 1
1062071,1062071,sucursales,1,-34.6119916,-58.3989244,SPINETTO ,7790199000020,Hipermercado,AR-C,,,144.99,LLEVANDO ESTE ARTICULO 15% DE DTO CON TARJ. COMUNIDAD COTO CON TARJETAS  EN LINEA DE CAJAS*  CON COMUNIDAD COTO - DEL 23/08/2022 AL 25/08/2022 O HASTA AGOTAR STOCK DE 17700 UNI,123.24,True,Alsina 2300,COTO CICSA,Once,Coto Centro Integral de Comercialización S.A.,12,MORIXE,Harina de Trigo 0000 Morixe 1 Kg,1.0 kg,2022-08-25,Cluster 1
1062072,1062072,sucursales,1,-34.654144,-58.4196788,POMPEYA ,7790199000020,Hipermercado,AR-C,,,144.99,LLEVANDO ESTE ARTICULO 15% DE DTO CON TARJ. COMUNIDAD COTO CON TARJETAS  EN LINEA DE CAJAS*  CON COMUNIDAD COTO - DEL 23/08/2022 AL 25/08/2022 O HASTA AGOTAR STOCK DE 17700 UNI,123.24,True,Av. Francisco Rabanal 1345,COTO CICSA,Pompeya,Coto Centro Integral de Comercialización S.A.,12,MORIXE,Harina de Trigo 0000 Morixe 1 Kg,1.0 kg,2022-08-25,Cluster 1
1062073,1062073,sucursales,1,-34.6831706,-58.3429383,SARANDI ,7790199000020,Hipermercado,AR-B,,,144.99,LLEVANDO ESTE ARTICULO 15% DE DTO CON TARJ. COMUNIDAD COTO CON TARJETAS  EN LINEA DE CAJAS*  CON COMUNIDAD COTO - DEL 23/08/2022 AL 25/08/2022 O HASTA AGOTAR STOCK DE 17700 UNI,123.24,True,Av. Mitre 3300,COTO CICSA,Sarandi,Coto Centro Integral de Comercialización S.A.,12,MORIXE,Harina de Trigo 0000 Morixe 1 Kg,1.0 kg,2022-08-25,Cluster 1
1062074,1062074,sucursales,1,-34.7200918,-58.2627514,QUILMES ,7790199000020,Hipermercado,AR-B,,,144.99,LLEVANDO ESTE ARTICULO 15% DE DTO CON TARJ. COMUNIDAD COTO CON TARJETAS  EN LINEA DE CAJAS*  CON COMUNIDAD COTO - DEL 23/08/2022 AL 25/08/2022 O HASTA AGOTAR STOCK DE 17700 UNI,123.24,True,Hipolito Yrigoyen 380,COTO CICSA,Quilmes,Coto Centro Integral de Comercialización S.A.,12,MORIXE,Harina de Trigo 0000 Morixe 1 Kg,1.0 kg,2022-08-25,Cluster 1
1062075,1062075,sucursales,1,-34.5668975,-58.4361596,MAURE ,7790199000020,Hipermercado,AR-C,,,144.99,LLEVANDO ESTE ARTICULO 15% DE DTO CON TARJ. COMUNIDAD COTO CON TARJETAS  EN LINEA DE CAJAS*  CON COMUNIDAD COTO - DEL 23/08/2022 AL 25/08/2022 O HASTA AGOTAR STOCK DE 17700 UNI,123.24,True,Maure 1725,COTO CICSA,Belgrano,Coto Centro Integral de Comercialización S.A.,12,MORIXE,Harina de Trigo 0000 Morixe 1 Kg,1.0 kg,2022-08-25,Cluster 1
1062076,1062076,sucursales,1,-34.4802448,-58.5056248,ALBARELLOS ,7790199000020,Supermercado,AR-B,,,144.99,LLEVANDO ESTE ARTICULO 15% DE DTO CON TARJ. COMUNIDAD COTO CON TARJETAS  EN LINEA DE CAJAS*  CON COMUNIDAD COTO - DEL 23/08/2022 AL 25/08/2022 O HASTA AGOTAR STOCK DE 17700 UNI,123.24,True,Albarellos 854,COTO CICSA,Acassuso,Coto Centro Integral de Comercialización S.A.,12,MORIXE,Harina de Trigo 0000 Morixe 1 Kg,1.0 kg,2022-08-25,Cluster 1
1062077,1062077,sucursales,1,-34.4808246,-58.5376011,LAS LOMAS ,7790199000020,Supermercado,AR-B,,,144.99,LLEVANDO ESTE ARTICULO 15% DE DTO CON TARJ. COMUNIDAD COTO CON TARJETAS  EN LINEA DE CAJAS*  CON COMUNIDAD COTO - DEL 23/08/2022 AL 25/08/2022 O HASTA AGOTAR STOCK DE 17700 UNI,123.24,True,Jorge Newbery 555,COTO CICSA,Las Lomas,Coto Centro Integral de Comercialización S.A.,12,MORIXE,Harina de Trigo 0000 Morixe 1 Kg,1.0 kg,2022-08-25,Cluster 1
1062078,1062078,sucursales,1,-34.4524395,-58.527515,PUNTA CHICA ,7790199000020,Hipermercado,AR-B,,,144.99,LLEVANDO ESTE ARTICULO 15% DE DTO CON TARJ. COMUNIDAD COTO CON TARJETAS  EN LINEA DE CAJAS*  CON COMUNIDAD COTO - DEL 23/08/2022 AL 25/08/2022 O HASTA AGOTAR STOCK DE 17700 UNI,123.24,True,Av. Del Libertador 18213,COTO CICSA,Punta Chica,Coto Centro Integral de Comercialización S.A.,12,MORIXE,Harina de Trigo 0000 Morixe 1 Kg,1.0 kg,2022-08-25,Cluster 1
1062079,1062079,sucursales,1,-34.628905,-58.402557,JUAN DE GARAY ,7790199000020,Supermercado,AR-C,,,144.99,LLEVANDO ESTE ARTICULO 15% DE DTO CON TARJ. COMUNIDAD COTO CON TARJETAS  EN LINEA DE CAJAS*  CON COMUNIDAD COTO - DEL 23/08/2022 AL 25/08/2022 O HASTA AGOTAR STOCK DE 17700 UNI,123.24,True,Av. J. De Garay 2700,COTO CICSA,Parque Patricios,Coto Centro Integral de Comercialización S.A.,12,MORIXE,Harina de Trigo 0000 Morixe 1 Kg,1.0 kg,2022-08-25,Cluster 1
1062080,1062080,sucursales,1,-34.4654523,-58.5100921,SAN ISIDRO TREN DELA COSTA ,7790199000020,Supermercado,AR-B,,,144.99,LLEVANDO ESTE ARTICULO 15% DE DTO CON TARJ. COMUNIDAD COTO CON TARJETAS  EN LINEA DE CAJAS*  CON COMUNIDAD COTO - DEL 23/08/2022 AL 25/08/2022 O HASTA AGOTAR STOCK DE 17700 UNI,123.24,True,Lasalle 653,COTO CICSA,San Isidro,Coto Centro Integral de Comercialización S.A.,12,MORIXE,Harina de Trigo 0000 Morixe 1 Kg,1.0 kg,2022-08-25,Cluster 1
1062081,1062081,sucursales,1,-34.5016027,-58.4823114,OLIVOS TREN DE LA COSTA ,7790199000020,Hipermercado,AR-B,,,144.99,LLEVANDO ESTE ARTICULO 15% DE DTO CON TARJ. COMUNIDAD COTO CON TARJETAS  EN LINEA DE CAJAS*  CON COMUNIDAD COTO - DEL 23/08/2022 AL 25/08/2022 O HASTA AGOTAR STOCK DE 17700 UNI,123.24,True,Av. Del Libertador 3100,COTO CICSA,Olivos,Coto Centro Integral de Comercialización S.A.,12,MORIXE,Harina de Trigo 0000 Morixe 1 Kg,1.0 kg,2022-08-25,Cluster 1
1062082,1062082,sucursales,1,-34.6056255,-58.4135635,GALLO ,7790199000020,Supermercado,AR-C,,,144.99,LLEVANDO ESTE ARTICULO 15% DE DTO CON TARJ. COMUNIDAD COTO CON TARJETAS  EN LINEA DE CAJAS*  CON COMUNIDAD COTO - DEL 23/08/2022 AL 25/08/2022 O HASTA AGOTAR STOCK DE 17700 UNI,123.24,True,Gallo 250,COTO CICSA,Almagro,Coto Centro Integral de Comercialización S.A.,12,MORIXE,Harina de Trigo 0000 Morixe 1 Kg,1.0 kg,2022-08-25,Cluster 1
1062083,1062083,sucursales,1,-34.6904098,-58.4205743,LANUS ,7790199000020,Hipermercado,AR-B,,,144.99,LLEVANDO ESTE ARTICULO 15% DE DTO CON TARJ. COMUNIDAD COTO CON TARJETAS  EN LINEA DE CAJAS*  CON COMUNIDAD COTO - DEL 23/08/2022 AL 25/08/2022 O HASTA AGOTAR STOCK DE 17700 UNI,123.24,True,Av. B. Rivadavia 2602,COTO CICSA,Lanus,Coto Centro Integral de Comercialización S.A.,12,MORIXE,Harina de Trigo 0000 Morixe 1 Kg,1.0 kg,2022-08-25,Cluster 1
1062085,1062085,sucursales,1,-34.6162451,-58.3982386,PICHINCHA ,7790199000020,Hipermercado,AR-C,,,144.99,LLEVANDO ESTE ARTICULO 15% DE DTO CON TARJ. COMUNIDAD COTO CON TARJETAS  EN LINEA DE CAJAS*  CON COMUNIDAD COTO - DEL 23/08/2022 AL 25/08/2022 O HASTA AGOTAR STOCK DE 17700 UNI,123.24,True,México 2236,COTO CICSA,San Cristobal,Coto Centro Integral de Comercialización S.A.,12,MORIXE,Harina de Trigo 0000 Morixe 1 Kg,1.0 kg,2022-08-25,Cluster 1
1062086,1062086,sucursales,1,-34.5907212,-58.399403,FRENCH ,7790199000020,Hipermercado,AR-C,,,144.99,LLEVANDO ESTE ARTICULO 15% DE DTO CON TARJ. COMUNIDAD COTO CON TARJETAS  EN LINEA DE CAJAS*  CON COMUNIDAD COTO - DEL 23/08/2022 AL 25/08/2022 O HASTA AGOTAR STOCK DE 17700 UNI,123.24,True,French 2417,COTO CICSA,Capital Federal,Coto Centro Integral de Comercialización S.A.,12,MORIXE,Harina de Trigo 0000 Morixe 1 Kg,1.0 kg,2022-08-25,Cluster 1
1062087,1062087,sucursales,1,-34.6017899,-58.44255,MURILLO ,7790199000020,Supermercado,AR-C,,,144.99,LLEVANDO ESTE ARTICULO 15% DE DTO CON TARJ. COMUNIDAD COTO CON TARJETAS  EN LINEA DE CAJAS*  CON COMUNIDAD COTO - DEL 23/08/2022 AL 25/08/2022 O HASTA AGOTAR STOCK DE 17700 UNI,123.24,True,Murillo 551,COTO CICSA,Villa Crespo,Coto Centro Integral de Comercialización S.A.,12,MORIXE,Harina de Trigo 0000 Morixe 1 Kg,1.0 kg,2022-08-25,Cluster 1
1062088,1062088,sucursales,1,-34.6379202,-58.502751,VILLA LURO ,7790199000020,Supermercado,AR-C,,,144.99,LLEVANDO ESTE ARTICULO 15% DE DTO CON TARJ. COMUNIDAD COTO CON TARJETAS  EN LINEA DE CAJAS*  CON COMUNIDAD COTO - DEL 23/08/2022 AL 25/08/2022 O HASTA AGOTAR STOCK DE 17700 UNI,123.24,True,Av. Rivadavia 9840,COTO CICSA,Villa Luro,Coto Centro Integral de Comercialización S.A.,12,MORIXE,Harina de Trigo 0000 Morixe 1 Kg,1.0 kg,2022-08-25,Cluster 1
1062089,1062089,sucursales,1,-34.6118491,-58.4209021,CASTRO BARROS ,7790199000020,Hipermercado,AR-C,,,144.99,LLEVANDO ESTE ARTICULO 15% DE DTO CON TARJ. COMUNIDAD COTO CON TARJETAS  EN LINEA DE CAJAS*  CON COMUNIDAD COTO - DEL 23/08/2022 AL 25/08/2022 O HASTA AGOTAR STOCK DE 17700 UNI,123.24,True,Castro Barros 30,COTO CICSA,Almagro,Coto Centro Integral de Comercialización S.A.,12,MORIXE,Harina de Trigo 0000 Morixe 1 Kg,1.0 kg,2022-08-25,Cluster 1
1062090,1062090,sucursales,1,-34.6561036,-58.4767969,EVA PERON ,7790199000020,Hipermercado,AR-C,,,144.99,LLEVANDO ESTE ARTICULO 15% DE DTO CON TARJ. COMUNIDAD COTO CON TARJETAS  EN LINEA DE CAJAS*  CON COMUNIDAD COTO - DEL 23/08/2022 AL 25/08/2022 O HASTA AGOTAR STOCK DE 17700 UNI,123.24,True,Av. Eva Perón 4730,COTO CICSA,Mataderos,Coto Centro Integral de Comercialización S.A.,12,MORIXE,Harina de Trigo 0000 Morixe 1 Kg,1.0 kg,2022-08-25,Cluster 1
1062091,1062091,sucursales,1,-34.621309,-58.428189,AV. LA PLATA ,7790199000020,Supermercado,AR-C,,,144.99,LLEVANDO ESTE ARTICULO 15% DE DTO CON TARJ. COMUNIDAD COTO CON TARJETAS  EN LINEA DE CAJAS*  CON COMUNIDAD COTO - DEL 23/08/2022 AL 25/08/2022 O HASTA AGOTAR STOCK DE 17700 UNI,123.24,True,Av. La Plata 541,COTO CICSA,Caballito,Coto Centro Integral de Comercialización S.A.,12,MORIXE,Harina de Trigo 0000 Morixe 1 Kg,1.0 kg,2022-08-25,Cluster 1
1062092,1062092,sucursales,1,-34.6027526,-58.4114132,ABASTO ,7790199000020,Hipermercado,AR-C,,,144.99,LLEVANDO ESTE ARTICULO 15% DE DTO CON TARJ. COMUNIDAD COTO CON TARJETAS  EN LINEA DE CAJAS*  CON COMUNIDAD COTO - DEL 23/08/2022 AL 25/08/2022 O HASTA AGOTAR STOCK DE 17700 UNI,123.24,True,Agüero 616,COTO CICSA,Abasto,Coto Centro Integral de Comercialización S.A.,12,MORIXE,Harina de Trigo 0000 Morixe 1 Kg,1.0 kg,2022-08-25,Cluster 1
1062093,1062093,sucursales,1,-34.5215759,-58.4850089,VTE LOPEZ ,7790199000020,Hipermercado,AR-B,,,144.99,LLEVANDO ESTE ARTICULO 15% DE DTO CON TARJ. COMUNIDAD COTO CON TARJETAS  EN LINEA DE CAJAS*  CON COMUNIDAD COTO - DEL 23/08/2022 AL 25/08/2022 O HASTA AGOTAR STOCK DE 17700 UNI,123.24,True,Av. Maipu 1758,COTO CICSA,Vte Lopez,Coto Centro Integral de Comercialización S.A.,12,MORIXE,Harina de Trigo 0000 Morixe 1 Kg,1.0 kg,2022-08-25,Cluster 1
1062094,1062094,sucursales,1,-34.7030125,-58.4995605,TAPIALES ,7790199000020,Hipermercado,AR-B,,,144.99,LLEVANDO ESTE ARTICULO 15% DE DTO CON TARJ. COMUNIDAD COTO CON TARJETAS  EN LINEA DE CAJAS*  CON COMUNIDAD COTO - DEL 23/08/2022 AL 25/08/2022 O HASTA AGOTAR STOCK DE 17700 UNI,123.24,True,Boulogne Sur Mer Y Av De La Cooperacion -1,COTO CICSA,Tapiales,Coto Centro Integral de Comercialización S.A.,12,MORIXE,Harina de Trigo 0000 Morixe 1 Kg,1.0 kg,2022-08-25,Cluster 1
1062095,1062095,sucursales,1,-32.9446397,-60.6778049,LA REINA,7790199000020,Supermercado,AR-S,,,144.99,LLEVANDO ESTE ARTICULO 15% DE DTO CON TARJ. COMUNIDAD COTO CON TARJETAS  EN LINEA DE CAJAS*  CON COMUNIDAD COTO - DEL 23/08/2022 AL 25/08/2022 O HASTA AGOTAR STOCK DE 17700 UNI,123.24,True,Mendoza 3901,COTO CICSA,Rosario,Coto Centro Integral de Comercialización S.A.,12,MORIXE,Harina de Trigo 0000 Morixe 1 Kg,1.0 kg,2022-08-25,Cluster 1
1062096,1062096,sucursales,1,-32.9298072,-60.7249756,FISHERTON ROSARIO ,7790199000020,Hipermercado,AR-S,,,144.99,LLEVANDO ESTE ARTICULO 15% DE DTO CON TARJ. COMUNIDAD COTO CON TARJETAS  EN LINEA DE CAJAS*  CON COMUNIDAD COTO - DEL 23/08/2022 AL 25/08/2022 O HASTA AGOTAR STOCK DE 17700 UNI,123.24,True,Venezuela 114,COTO CICSA,Fisherton,Coto Centro Integral de Comercialización S.A.,12,MORIXE,Harina de Trigo 0000 Morixe 1 Kg,1.0 kg,2022-08-25,Cluster 1
1062097,1062097,sucursales,1,-32.9416062,-60.6448748,ROSARIO,7790199000020,Hipermercado,AR-S,,,144.99,LLEVANDO ESTE ARTICULO 15% DE DTO CON TARJ. COMUNIDAD COTO CON TARJETAS  EN LINEA DE CAJAS*  CON COMUNIDAD COTO - DEL 23/08/2022 AL 25/08/2022 O HASTA AGOTAR STOCK DE 17700 UNI,123.24,True,Urquiza 1644,COTO CICSA,Rosario,Coto Centro Integral de Comercialización S.A.,12,MORIXE,Harina de Trigo 0000 Morixe 1 Kg,1.0 kg,2022-08-25,Cluster 1
1062098,1062098,sucursales,1,-32.9514498,-60.6467395,ROSARIO,7790199000020,Hipermercado,AR-S,,,144.99,LLEVANDO ESTE ARTICULO 15% DE DTO CON TARJ. COMUNIDAD COTO CON TARJETAS  EN LINEA DE CAJAS*  CON COMUNIDAD COTO - DEL 23/08/2022 AL 25/08/2022 O HASTA AGOTAR STOCK DE 17700 UNI,123.24,True,Tres De Febrero 1602,COTO CICSA,Rosario,Coto Centro Integral de Comercialización S.A.,12,MORIXE,Harina de Trigo 0000 Morixe 1 Kg,1.0 kg,2022-08-25,Cluster 1
1062099,1062099,sucursales,1,-37.324111,-59.114568,Tandil,7790199000020,Hipermercado,AR-B,,,152.5,,,True,Panamá 351,Hipermercado Carrefour,Tandil,INC S.A.,10,MORIXE,Harina de Trigo 0000 Morixe 1 Kg,1.0 kg,2022-08-25,Cluster 4
1062105,1062105,sucursales,1,-37.317411,-59.134689,273 - TANDIL,7790199000020,Autoservicio,AR-B,,,144.9,,,True,Av Colon 1143,Supermercados DIA,BUENOS AIRES,DIA Argentina S.A,15,MORIXE,Harina de Trigo 0000 Morixe 1 Kg,1.0 kg,2022-08-25,Cluster 1
1075193,1075193,sucursales,3,-34.544189,-58.7149,Fraga 1629,7792590000227,Autoservicio,AR-B,,,171.0,,,True,Fraga 1629,Express,San Miguel,INC S.A.,10,CASERITA,Harina de Trigo 0000 Caserita 1 Kg,1.0 kg,2022-08-24,Cluster 0
1075194,1075194,sucursales,3,-34.607887,-58.391361,B. Mitre 1751,7792590000227,Autoservicio,AR-C,,,171.0,,,True,Bartolomé Mitre 1751,Express,Ciudad Autónoma de Buenos Aires,INC S.A.,10,CASERITA,Harina de Trigo 0000 Caserita 1 Kg,1.0 kg,2022-08-24,Cluster 0
1075196,1075196,sucursales,3,-31.426127,-64.183581,Chacabuco 727,7792590000227,Autoservicio,AR-X,,,199.0,,,True,Chacabuco 727,Express,Córdoba,INC S.A.,10,CASERITA,Harina de Trigo 0000 Caserita 1 Kg,1.0 kg,2022-08-24,Cluster 2
1075214,1075214,sucursales,1,-24.7880714,-65.4219001,8013 - SALTA,7792590000227,Autoservicio,AR-A,,,167.57,,,True,Brown 70,Supermercados DIA,SALTA,DIA Argentina S.A,15,CASERITA,Harina de Trigo 0000 Caserita 1 Kg,1.0 kg,2022-08-24,Cluster 0
1075223,1075223,sucursales,2,-34.913497,-57.951821,La Plata I,7790070507242,Supermercado,AR-B,,,156.0,,,True,Calle 7 767,Market,La Plata,INC S.A.,10,FAVORITA,Harina 0000 Vitazink Favorita 1 Kg,1.0 kg,2022-08-24,Cluster 4
1075227,1075227,sucursales,1,-34.567026,-59.111166,48 - LUJAN,7790070507242,Autoservicio,AR-B,,,152.02,,,True,Cl Humberto Primero 1000,Supermercados DIA,BUENOS AIRES,DIA Argentina S.A,15,FAVORITA,Harina 0000 Vitazink Favorita 1 Kg,1.0 kg,2022-08-24,Cluster 4
1075229,1075229,sucursales,1,-34.5999938,-58.4032685,548 - BALVANERA,7790070507242,Autoservicio,AR-C,,,152.02,,,True,Paso 752 (Balbanera) ,Supermercados DIA,CAPITAL FEDERAL,DIA Argentina S.A,15,FAVORITA,Harina 0000 Vitazink Favorita 1 Kg,1.0 kg,2022-08-24,Cluster 4
1075234,1075234,sucursales,1,-36.618338,-64.291249,Santa Rosa,7790070507242,Hipermercado,AR-L,,,175.5,,,True,Avellaneda 151,Hipermercado Carrefour,Santa Rosa,INC S.A.,10,FAVORITA,Harina 0000 Vitazink Favorita 1 Kg,1.0 kg,2022-08-24,Cluster 0
1075236,1075236,sucursales,1,-34.6650066,-58.3623175,AVELLANEDA ,7790199000020,Supermercado,AR-B,,,144.99,LLEVANDO ESTE ARTICULO 15% DE DTO CON TARJ. COMUNIDAD COTO CON TARJETAS  EN LINEA DE CAJAS*  CON COMUNIDAD COTO - DEL 23/08/2022 AL 25/08/2022 O HASTA AGOTAR STOCK DE 18500 UNI,123.24,True,Italia 62,COTO CICSA,Avellaneda,Coto Centro Integral de Comercialización S.A.,12,MORIXE,Harina de Trigo 0000 Morixe 1 Kg,1.0 kg,2022-08-24,Cluster 1
1075237,1075237,sucursales,1,-34.7437163,-58.2891868,QUILMES ,7790199000020,Supermercado,AR-B,,,144.99,LLEVANDO ESTE ARTICULO 15% DE DTO CON TARJ. COMUNIDAD COTO CON TARJETAS  EN LINEA DE CAJAS*  CON COMUNIDAD COTO - DEL 23/08/2022 AL 25/08/2022 O HASTA AGOTAR STOCK DE 18500 UNI,123.24,True,12 De Octubre 3054,COTO CICSA,Quilmes,Coto Centro Integral de Comercialización S.A.,12,MORIXE,Harina de Trigo 0000 Morixe 1 Kg,1.0 kg,2022-08-24,Cluster 1
1075238,1075238,sucursales,1,-34.814703,-58.456994,MONTE GRANDE ,7790199000020,Hipermercado,AR-B,,,144.99,LLEVANDO ESTE ARTICULO 15% DE DTO CON TARJ. COMUNIDAD COTO CON TARJETAS  EN LINEA DE CAJAS*  CON COMUNIDAD COTO - DEL 23/08/2022 AL 25/08/2022 O HASTA AGOTAR STOCK DE 18500 UNI,123.24,True,Boulevar Bs. As. 710,COTO CICSA,Monte Grande,Coto Centro Integral de Comercialización S.A.,12,MORIXE,Harina de Trigo 0000 Morixe 1 Kg,1.0 kg,2022-08-24,Cluster 1
1075239,1075239,sucursales,1,-34.7817272,-58.4067065,TEMPERLEY ,7790199000020,Hipermercado,AR-B,,,144.99,LLEVANDO ESTE ARTICULO 15% DE DTO CON TARJ. COMUNIDAD COTO CON TARJETAS  EN LINEA DE CAJAS*  CON COMUNIDAD COTO - DEL 23/08/2022 AL 25/08/2022 O HASTA AGOTAR STOCK DE 18500 UNI,123.24,True,Hipolito Irigoyen 10699,COTO CICSA,Lomas De Zamora,Coto Centro Integral de Comercialización S.A.,12,MORIXE,Harina de Trigo 0000 Morixe 1 Kg,1.0 kg,2022-08-24,Cluster 1
1075240,1075240,sucursales,1,-34.5458941,-58.4705622,CABILDO ,7790199000020,Supermercado,AR-C,,,144.99,LLEVANDO ESTE ARTICULO 15% DE DTO CON TARJ. COMUNIDAD COTO CON TARJETAS  EN LINEA DE CAJAS*  CON COMUNIDAD COTO - DEL 23/08/2022 AL 25/08/2022 O HASTA AGOTAR STOCK DE 18500 UNI,123.24,True,Av. Cabildo 4125,COTO CICSA,Capital Federal,Coto Centro Integral de Comercialización S.A.,12,MORIXE,Harina de Trigo 0000 Morixe 1 Kg,1.0 kg,2022-08-24,Cluster 1
1075241,1075241,sucursales,1,-31.7419371,-60.5387651,PARANA ,7790199000020,Hipermercado,AR-E,,,144.99,LLEVANDO ESTE ARTICULO 15% DE DTO CON TARJ. COMUNIDAD COTO CON TARJETAS  EN LINEA DE CAJAS*  CON COMUNIDAD COTO - DEL 23/08/2022 AL 25/08/2022 O HASTA AGOTAR STOCK DE 18500 UNI,123.24,True,Coronel Juan M. Piran 801,COTO CICSA,Parana,Coto Centro Integral de Comercialización S.A.,12,MORIXE,Harina de Trigo 0000 Morixe 1 Kg,1.0 kg,2022-08-24,Cluster 1
1075242,1075242,sucursales,1,-34.6845178,-58.4641447,LUGANO ,7790199000020,Hipermercado,AR-C,,,144.99,LLEVANDO ESTE ARTICULO 15% DE DTO CON TARJ. COMUNIDAD COTO CON TARJETAS  EN LINEA DE CAJAS*  CON COMUNIDAD COTO - DEL 23/08/2022 AL 25/08/2022 O HASTA AGOTAR STOCK DE 18500 UNI,123.24,True,Soldado De La Frontera 5258,COTO CICSA,V Illa Lugano,Coto Centro Integral de Comercialización S.A.,12,MORIXE,Harina de Trigo 0000 Morixe 1 Kg,1.0 kg,2022-08-24,Cluster 1
1075243,1075243,sucursales,1,-34.5810538,-58.5418252,SAN MARTIN,7790199000020,Supermercado,AR-B,,,144.99,LLEVANDO ESTE ARTICULO 15% DE DTO CON TARJ. COMUNIDAD COTO CON TARJETAS  EN LINEA DE CAJAS*  CON COMUNIDAD COTO - DEL 23/08/2022 AL 25/08/2022 O HASTA AGOTAR STOCK DE 18500 UNI,123.24,True,Av. Balbin 2030,COTO CICSA,San Martin,Coto Centro Integral de Comercialización S.A.,12,MORIXE,Harina de Trigo 0000 Morixe 1 Kg,1.0 kg,2022-08-24,Cluster 1
1075244,1075244,sucursales,1,-34.62116,-58.445992,YERBAL ,7790199000020,Supermercado,AR-C,,,144.99,LLEVANDO ESTE ARTICULO 15% DE DTO CON TARJ. COMUNIDAD COTO CON TARJETAS  EN LINEA DE CAJAS*  CON COMUNIDAD COTO - DEL 23/08/2022 AL 25/08/2022 O HASTA AGOTAR STOCK DE 18500 UNI,123.24,True,Yerbal 1062,COTO CICSA,Caballito,Coto Centro Integral de Comercialización S.A.,12,MORIXE,Harina de Trigo 0000 Morixe 1 Kg,1.0 kg,2022-08-24,Cluster 1
1075245,1075245,sucursales,1,-34.1659506,-58.9611328,CAMPANA ,7790199000020,Supermercado,AR-B,,,144.99,LLEVANDO ESTE ARTICULO 15% DE DTO CON TARJ. COMUNIDAD COTO CON TARJETAS  EN LINEA DE CAJAS*  CON COMUNIDAD COTO - DEL 23/08/2022 AL 25/08/2022 O HASTA AGOTAR STOCK DE 18500 UNI,123.24,True,Juan M. Estrada 878,COTO CICSA,Campana,Coto Centro Integral de Comercialización S.A.,12,MORIXE,Harina de Trigo 0000 Morixe 1 Kg,1.0 kg,2022-08-24,Cluster 1
1075246,1075246,sucursales,1,-31.637308,-60.7017017,SANTA FE ,7790199000020,Hipermercado,AR-S,,,144.99,LLEVANDO ESTE ARTICULO 25% DE DTO CON TARJ. COMUNIDAD COTO CON TARJETAS  EN LINEA DE CAJAS*  CON COMUNIDAD COTO - DEL 22/08/2022 AL 24/08/2022 O HASTA AGOTAR STOCK DE 18500 UNI,108.74,True,Rivadavia 3396,COTO CICSA,Ciudad De Santa Fe,Coto Centro Integral de Comercialización S.A.,12,MORIXE,Harina de Trigo 0000 Morixe 1 Kg,1.0 kg,2022-08-24,Cluster 1
1075247,1075247,sucursales,1,-34.671088,-58.47915,LARRAZABAL ,7790199000020,Supermercado,AR-C,,,144.99,LLEVANDO ESTE ARTICULO 15% DE DTO CON TARJ. COMUNIDAD COTO CON TARJETAS  EN LINEA DE CAJAS*  CON COMUNIDAD COTO - DEL 23/08/2022 AL 25/08/2022 O HASTA AGOTAR STOCK DE 18500 UNI,123.24,True,Larrazabal 3443,COTO CICSA,Lugano,Coto Centro Integral de Comercialización S.A.,12,MORIXE,Harina de Trigo 0000 Morixe 1 Kg,1.0 kg,2022-08-24,Cluster 1
1075248,1075248,sucursales,1,-34.5715475,-58.6833252,BELLA VISTA ,7790199000020,Supermercado,AR-B,,,144.99,LLEVANDO ESTE ARTICULO 15% DE DTO CON TARJ. COMUNIDAD COTO CON TARJETAS  EN LINEA DE CAJAS*  CON COMUNIDAD COTO - DEL 23/08/2022 AL 25/08/2022 O HASTA AGOTAR STOCK DE 18500 UNI,123.24,True,O Higgins 1263,COTO CICSA,Bella Vista,Coto Centro Integral de Comercialización S.A.,12,MORIXE,Harina de Trigo 0000 Morixe 1 Kg,1.0 kg,2022-08-24,Cluster 1
1075249,1075249,sucursales,1,-34.6230367,-58.3959072,SAN JUAN ,7790199000020,Hipermercado,AR-C,,,144.99,LLEVANDO ESTE ARTICULO 15% DE DTO CON TARJ. COMUNIDAD COTO CON TARJETAS  EN LINEA DE CAJAS*  CON COMUNIDAD COTO - DEL 23/08/2022 AL 25/08/2022 O HASTA AGOTAR STOCK DE 18500 UNI,123.24,True,Av. San Juan 2168,COTO CICSA,Capital Federal,Coto Centro Integral de Comercialización S.A.,12,MORIXE,Harina de Trigo 0000 Morixe 1 Kg,1.0 kg,2022-08-24,Cluster 1
1075251,1075251,sucursales,1,-34.623834,-58.512072,LOPE DE VEGA ,7790199000020,Supermercado,AR-C,,,144.99,LLEVANDO ESTE ARTICULO 15% DE DTO CON TARJ. COMUNIDAD COTO CON TARJETAS  EN LINEA DE CAJAS*  CON COMUNIDAD COTO - DEL 23/08/2022 AL 25/08/2022 O HASTA AGOTAR STOCK DE 18500 UNI,123.24,True,Lope De Vega 1742,COTO CICSA,Cdad. De Bs.As,Coto Centro Integral de Comercialización S.A.,12,MORIXE,Harina de Trigo 0000 Morixe 1 Kg,1.0 kg,2022-08-24,Cluster 1
1075252,1075252,sucursales,1,-34.6287238,-58.5488933,CIUDADELA ,7790199000020,Hipermercado,AR-B,,,144.99,LLEVANDO ESTE ARTICULO 15% DE DTO CON TARJ. COMUNIDAD COTO CON TARJETAS  EN LINEA DE CAJAS*  CON COMUNIDAD COTO - DEL 23/08/2022 AL 25/08/2022 O HASTA AGOTAR STOCK DE 18500 UNI,123.24,True,Comesaña 4056,COTO CICSA,Ciudadela,Coto Centro Integral de Comercialización S.A.,12,MORIXE,Harina de Trigo 0000 Morixe 1 Kg,1.0 kg,2022-08-24,Cluster 1
1075253,1075253,sucursales,1,-34.764146,-58.6200547,RUTA 3 ,7790199000020,Supermercado,AR-B,,,144.99,LLEVANDO ESTE ARTICULO 15% DE DTO CON TARJ. COMUNIDAD COTO CON TARJETAS  EN LINEA DE CAJAS*  CON COMUNIDAD COTO - DEL 23/08/2022 AL 25/08/2022 O HASTA AGOTAR STOCK DE 18500 UNI,123.24,True,Av. Brig. Gral. Juan Manuel De Rosas 14457,COTO CICSA,Gonzalez Catan,Coto Centro Integral de Comercialización S.A.,12,MORIXE,Harina de Trigo 0000 Morixe 1 Kg,1.0 kg,2022-08-24,Cluster 1
1075254,1075254,sucursales,1,-34.719142,-58.2913273,BERNAL ,7790199000020,Supermercado,AR-B,,,144.99,LLEVANDO ESTE ARTICULO 15% DE DTO CON TARJ. COMUNIDAD COTO CON TARJETAS  EN LINEA DE CAJAS*  CON COMUNIDAD COTO - DEL 23/08/2022 AL 25/08/2022 O HASTA AGOTAR STOCK DE 18500 UNI,123.24,True,Av. Dardo Rocha 251,COTO CICSA,Bernal,Coto Centro Integral de Comercialización S.A.,12,MORIXE,Harina de Trigo 0000 Morixe 1 Kg,1.0 kg,2022-08-24,Cluster 1
1075255,1075255,sucursales,1,-34.519576,-58.7531003,JOSE C. PAZ ,7790199000020,Hipermercado,AR-B,,,144.99,LLEVANDO ESTE ARTICULO 15% DE DTO CON TARJ. COMUNIDAD COTO CON TARJETAS  EN LINEA DE CAJAS*  CON COMUNIDAD COTO - DEL 23/08/2022 AL 25/08/2022 O HASTA AGOTAR STOCK DE 18500 UNI,123.24,True,Hipolito Yrigoyen 1826,COTO CICSA,Jose C Paz,Coto Centro Integral de Comercialización S.A.,12,MORIXE,Harina de Trigo 0000 Morixe 1 Kg,1.0 kg,2022-08-24,Cluster 1
1075256,1075256,sucursales,1,-34.6259327,-58.4355294,PEDRO GOYENA ,7790199000020,Supermercado,AR-C,,,144.99,LLEVANDO ESTE ARTICULO 15% DE DTO CON TARJ. COMUNIDAD COTO CON TARJETAS  EN LINEA DE CAJAS*  CON COMUNIDAD COTO - DEL 23/08/2022 AL 25/08/2022 O HASTA AGOTAR STOCK DE 18500 UNI,123.24,True,Pedro Goyena 565,COTO CICSA,Capital Federal,Coto Centro Integral de Comercialización S.A.,12,MORIXE,Harina de Trigo 0000 Morixe 1 Kg,1.0 kg,2022-08-24,Cluster 1
1075257,1075257,sucursales,1,-34.9132587,-57.9601721,LA PLATA ,7790199000020,Supermercado,AR-B,,,144.99,LLEVANDO ESTE ARTICULO 15% DE DTO CON TARJ. COMUNIDAD COTO CON TARJETAS  EN LINEA DE CAJAS*  CON COMUNIDAD COTO - DEL 23/08/2022 AL 25/08/2022 O HASTA AGOTAR STOCK DE 18500 UNI,123.24,True,Calle 43 782,COTO CICSA,La Plata,Coto Centro Integral de Comercialización S.A.,12,MORIXE,Harina de Trigo 0000 Morixe 1 Kg,1.0 kg,2022-08-24,Cluster 1
1075258,1075258,sucursales,1,-34.6358296,-58.4415417,ASAMBLEA ,7790199000020,Supermercado,AR-C,,,144.99,LLEVANDO ESTE ARTICULO 15% DE DTO CON TARJ. COMUNIDAD COTO CON TARJETAS  EN LINEA DE CAJAS*  CON COMUNIDAD COTO - DEL 23/08/2022 AL 25/08/2022 O HASTA AGOTAR STOCK DE 18500 UNI,123.24,True,Asamblea 1100,COTO CICSA,Parque Chacabuco,Coto Centro Integral de Comercialización S.A.,12,MORIXE,Harina de Trigo 0000 Morixe 1 Kg,1.0 kg,2022-08-24,Cluster 1
1075259,1075259,sucursales,1,-34.6073757,-58.477492,JONTE ,7790199000020,Supermercado,AR-C,,,144.99,LLEVANDO ESTE ARTICULO 15% DE DTO CON TARJ. COMUNIDAD COTO CON TARJETAS  EN LINEA DE CAJAS*  CON COMUNIDAD COTO - DEL 23/08/2022 AL 25/08/2022 O HASTA AGOTAR STOCK DE 18500 UNI,123.24,True,Av. Alvarez Jonte 2502,COTO CICSA,Capital Federal,Coto Centro Integral de Comercialización S.A.,12,MORIXE,Harina de Trigo 0000 Morixe 1 Kg,1.0 kg,2022-08-24,Cluster 1
1075260,1075260,sucursales,1,-34.3456017,-58.7928537,ESCOBAR ,7790199000020,Supermercado,AR-B,,,144.99,LLEVANDO ESTE ARTICULO 15% DE DTO CON TARJ. COMUNIDAD COTO CON TARJETAS  EN LINEA DE CAJAS*  CON COMUNIDAD COTO - DEL 23/08/2022 AL 25/08/2022 O HASTA AGOTAR STOCK DE 18500 UNI,123.24,True,Tapia De Cruz 420,COTO CICSA,Escobar,Coto Centro Integral de Comercialización S.A.,12,MORIXE,Harina de Trigo 0000 Morixe 1 Kg,1.0 kg,2022-08-24,Cluster 1
1075261,1075261,sucursales,1,-34.419958,-58.794678,155 HIGHLAND PARK ,7790199000020,Supermercado,AR-B,,,144.99,LLEVANDO ESTE ARTICULO 15% DE DTO CON TARJ. COMUNIDAD COTO CON TARJETAS  EN LINEA DE CAJAS*  CON COMUNIDAD COTO - DEL 23/08/2022 AL 25/08/2022 O HASTA AGOTAR STOCK DE 18500 UNI,123.24,True,Country Highland Park ,COTO CICSA,Pilar,Coto Centro Integral de Comercialización S.A.,12,MORIXE,Harina de Trigo 0000 Morixe 1 Kg,1.0 kg,2022-08-24,Cluster 1
1075262,1075262,sucursales,1,-34.5924706,-58.4111036,CHARCAS ,7790199000020,Hipermercado,AR-C,,,144.99,LLEVANDO ESTE ARTICULO 15% DE DTO CON TARJ. COMUNIDAD COTO CON TARJETAS  EN LINEA DE CAJAS*  CON COMUNIDAD COTO - DEL 23/08/2022 AL 25/08/2022 O HASTA AGOTAR STOCK DE 18500 UNI,123.24,True,Charcas 2980,COTO CICSA,Capital Federal,Coto Centro Integral de Comercialización S.A.,12,MORIXE,Harina de Trigo 0000 Morixe 1 Kg,1.0 kg,2022-08-24,Cluster 1
1075263,1075263,sucursales,1,-34.6077047,-58.3879012,MITRE ,7790199000020,Supermercado,AR-C,,,144.99,LLEVANDO ESTE ARTICULO 15% DE DTO CON TARJ. COMUNIDAD COTO CON TARJETAS  EN LINEA DE CAJAS*  CON COMUNIDAD COTO - DEL 23/08/2022 AL 25/08/2022 O HASTA AGOTAR STOCK DE 18500 UNI,123.24,True,Bartolomé Mitre 1558,COTO CICSA,Capital Federal,Coto Centro Integral de Comercialización S.A.,12,MORIXE,Harina de Trigo 0000 Morixe 1 Kg,1.0 kg,2022-08-24,Cluster 1
1075264,1075264,sucursales,1,-34.5850445,-58.372698,SADOS ,7790199000020,Hipermercado,AR-C,,,144.99,LLEVANDO ESTE ARTICULO 15% DE DTO CON TARJ. COMUNIDAD COTO CON TARJETAS  EN LINEA DE CAJAS*  CON COMUNIDAD COTO - DEL 23/08/2022 AL 25/08/2022 O HASTA AGOTAR STOCK DE 18500 UNI,123.24,True,Av. Antartica Argentina 1160,COTO CICSA,Capital Federal,Coto Centro Integral de Comercialización S.A.,12,MORIXE,Harina de Trigo 0000 Morixe 1 Kg,1.0 kg,2022-08-24,Cluster 1
1075265,1075265,sucursales,1,-34.4620027,-58.7601993,TORTUGUITAS ,7790199000020,Supermercado,AR-B,,,144.99,LLEVANDO ESTE ARTICULO 15% DE DTO CON TARJ. COMUNIDAD COTO CON TARJETAS  EN LINEA DE CAJAS*  CON COMUNIDAD COTO - DEL 23/08/2022 AL 25/08/2022 O HASTA AGOTAR STOCK DE 18500 UNI,123.24,True,Tortugas Country Club ,COTO CICSA,Pilar,Coto Centro Integral de Comercialización S.A.,12,MORIXE,Harina de Trigo 0000 Morixe 1 Kg,1.0 kg,2022-08-24,Cluster 1
1075266,1075266,sucursales,1,-34.5960054,-58.3973971,JUNIN ,7790199000020,Supermercado,AR-C,,,144.99,LLEVANDO ESTE ARTICULO 15% DE DTO CON TARJ. COMUNIDAD COTO CON TARJETAS  EN LINEA DE CAJAS*  CON COMUNIDAD COTO - DEL 23/08/2022 AL 25/08/2022 O HASTA AGOTAR STOCK DE 18500 UNI,123.24,True,Junín 1073,COTO CICSA,Capital Federal,Coto Centro Integral de Comercialización S.A.,12,MORIXE,Harina de Trigo 0000 Morixe 1 Kg,1.0 kg,2022-08-24,Cluster 1
1075267,1075267,sucursales,1,-34.5553723,-58.5583111,VILLA BALLESTER ,7790199000020,Supermercado,AR-B,,,144.99,LLEVANDO ESTE ARTICULO 15% DE DTO CON TARJ. COMUNIDAD COTO CON TARJETAS  EN LINEA DE CAJAS*  CON COMUNIDAD COTO - DEL 23/08/2022 AL 25/08/2022 O HASTA AGOTAR STOCK DE 18500 UNI,123.24,True,Jose Hernandez 2955,COTO CICSA,Villa Ballester,Coto Centro Integral de Comercialización S.A.,12,MORIXE,Harina de Trigo 0000 Morixe 1 Kg,1.0 kg,2022-08-24,Cluster 1
1075268,1075268,sucursales,1,-32.9265135,-60.6720475,ROSARIO TALLERES ,7790199000020,Hipermercado,AR-S,,,144.99,LLEVANDO ESTE ARTICULO 25% DE DTO CON TARJ. COMUNIDAD COTO CON TARJETAS  EN LINEA DE CAJAS*  CON COMUNIDAD COTO - DEL 22/08/2022 AL 24/08/2022 O HASTA AGOTAR STOCK DE 18500 UNI,108.74,True,Av. Junin 590,COTO CICSA,Rosario,Coto Centro Integral de Comercialización S.A.,12,MORIXE,Harina de Trigo 0000 Morixe 1 Kg,1.0 kg,2022-08-24,Cluster 1
1075269,1075269,sucursales,1,-34.6189821,-58.4754368,NAZCA ,7790199000020,Supermercado,AR-C,,,144.99,LLEVANDO ESTE ARTICULO 15% DE DTO CON TARJ. COMUNIDAD COTO CON TARJETAS  EN LINEA DE CAJAS*  CON COMUNIDAD COTO - DEL 23/08/2022 AL 25/08/2022 O HASTA AGOTAR STOCK DE 18500 UNI,123.24,True,Av. Nazca 1244,COTO CICSA,Capital Federal,Coto Centro Integral de Comercialización S.A.,12,MORIXE,Harina de Trigo 0000 Morixe 1 Kg,1.0 kg,2022-08-24,Cluster 1
1075270,1075270,sucursales,1,-34.5951411,-58.443905,VILLA CRESPO ,7790199000020,Supermercado,AR-C,,,144.99,LLEVANDO ESTE ARTICULO 15% DE DTO CON TARJ. COMUNIDAD COTO CON TARJETAS  EN LINEA DE CAJAS*  CON COMUNIDAD COTO - DEL 23/08/2022 AL 25/08/2022 O HASTA AGOTAR STOCK DE 18500 UNI,123.24,True,Av. Corrientes 5748,COTO CICSA,Capital Federal,Coto Centro Integral de Comercialización S.A.,12,MORIXE,Harina de Trigo 0000 Morixe 1 Kg,1.0 kg,2022-08-24,Cluster 1
1075271,1075271,sucursales,1,-34.5491869,-58.4544449,LIBERTADOR ,7790199000020,Supermercado,AR-C,,,144.99,LLEVANDO ESTE ARTICULO 15% DE DTO CON TARJ. COMUNIDAD COTO CON TARJETAS  EN LINEA DE CAJAS*  CON COMUNIDAD COTO - DEL 23/08/2022 AL 25/08/2022 O HASTA AGOTAR STOCK DE 18500 UNI,123.24,True,Av. Libertador 6840,COTO CICSA,Capital Federal,Coto Centro Integral de Comercialización S.A.,12,MORIXE,Harina de Trigo 0000 Morixe 1 Kg,1.0 kg,2022-08-24,Cluster 1
1075272,1075272,sucursales,1,-34.893323,-58.571979,TRISTAN SUAREZ ,7790199000020,Hipermercado,AR-B,,,144.99,LLEVANDO ESTE ARTICULO 15% DE DTO CON TARJ. COMUNIDAD COTO CON TARJETAS  EN LINEA DE CAJAS*  CON COMUNIDAD COTO - DEL 23/08/2022 AL 25/08/2022 O HASTA AGOTAR STOCK DE 18500 UNI,123.24,True,Avda. Sarmiento 524,COTO CICSA,Ezeiza,Coto Centro Integral de Comercialización S.A.,12,MORIXE,Harina de Trigo 0000 Morixe 1 Kg,1.0 kg,2022-08-24,Cluster 1
1075273,1075273,sucursales,1,-34.5728529,-58.4878818, CULLEN ,7790199000020,Supermercado,AR-C,,,144.99,LLEVANDO ESTE ARTICULO 15% DE DTO CON TARJ. COMUNIDAD COTO CON TARJETAS  EN LINEA DE CAJAS*  CON COMUNIDAD COTO - DEL 23/08/2022 AL 25/08/2022 O HASTA AGOTAR STOCK DE 18500 UNI,123.24,True,Cullen 5085,COTO CICSA,Capital Federal,Coto Centro Integral de Comercialización S.A.,12,MORIXE,Harina de Trigo 0000 Morixe 1 Kg,1.0 kg,2022-08-24,Cluster 1
1075274,1075274,sucursales,1,-34.6071216,-58.3960221, PTE. PERON ,7790199000020,Supermercado,AR-C,,,144.99,LLEVANDO ESTE ARTICULO 15% DE DTO CON TARJ. COMUNIDAD COTO CON TARJETAS  EN LINEA DE CAJAS*  CON COMUNIDAD COTO - DEL 23/08/2022 AL 25/08/2022 O HASTA AGOTAR STOCK DE 18500 UNI,123.24,True,Tte. Gral. Juan D. Perón 2070,COTO CICSA,Capital Federal,Coto Centro Integral de Comercialización S.A.,12,MORIXE,Harina de Trigo 0000 Morixe 1 Kg,1.0 kg,2022-08-24,Cluster 1
1075275,1075275,sucursales,1,-34.5698358,-58.4459054, TEODORO GARCIA ,7790199000020,Supermercado,AR-C,,,144.99,LLEVANDO ESTE ARTICULO 15% DE DTO CON TARJ. COMUNIDAD COTO CON TARJETAS  EN LINEA DE CAJAS*  CON COMUNIDAD COTO - DEL 23/08/2022 AL 25/08/2022 O HASTA AGOTAR STOCK DE 18500 UNI,123.24,True,Teodoro García 2419,COTO CICSA,Capital Federal,Coto Centro Integral de Comercialización S.A.,12,MORIXE,Harina de Trigo 0000 Morixe 1 Kg,1.0 kg,2022-08-24,Cluster 1
1075276,1075276,sucursales,1,-37.185485,-56.951625,MADARIAGA ,7790199000020,Hipermercado,AR-B,,,144.99,LLEVANDO ESTE ARTICULO 15% DE DTO CON TARJ. COMUNIDAD COTO CON TARJETAS  EN LINEA DE CAJAS*  CON COMUNIDAD COTO - DEL 23/08/2022 AL 25/08/2022 O HASTA AGOTAR STOCK DE 18500 UNI,123.24,True,Ruta 11 Km 404,COTO CICSA,Gral Madariaga,Coto Centro Integral de Comercialización S.A.,12,MORIXE,Harina de Trigo 0000 Morixe 1 Kg,1.0 kg,2022-08-24,Cluster 1
1075277,1075277,sucursales,1,-31.6490499,-60.7039408,SANTA FE PUERTO ,7790199000020,Supermercado,AR-S,,,144.99,LLEVANDO ESTE ARTICULO 25% DE DTO CON TARJ. COMUNIDAD COTO CON TARJETAS  EN LINEA DE CAJAS*  CON COMUNIDAD COTO - DEL 22/08/2022 AL 24/08/2022 O HASTA AGOTAR STOCK DE 18500 UNI,108.74,True,27 De Febrero 2320,COTO CICSA,Cuidad De Santa Fe,Coto Centro Integral de Comercialización S.A.,12,MORIXE,Harina de Trigo 0000 Morixe 1 Kg,1.0 kg,2022-08-24,Cluster 1
1075278,1075278,sucursales,1,-34.614634,-58.420517,H.YRIGOYEN ,7790199000020,Supermercado,AR-C,,,144.99,LLEVANDO ESTE ARTICULO 15% DE DTO CON TARJ. COMUNIDAD COTO CON TARJETAS  EN LINEA DE CAJAS*  CON COMUNIDAD COTO - DEL 23/08/2022 AL 25/08/2022 O HASTA AGOTAR STOCK DE 18500 UNI,123.24,True,Hipolito Yrigoyen 3702,COTO CICSA,Once,Coto Centro Integral de Comercialización S.A.,12,MORIXE,Harina de Trigo 0000 Morixe 1 Kg,1.0 kg,2022-08-24,Cluster 1
1075279,1075279,sucursales,1,-34.6316975,-58.4692109,SAN PEDRITO ,7790199000020,Supermercado,AR-C,,,144.99,LLEVANDO ESTE ARTICULO 15% DE DTO CON TARJ. COMUNIDAD COTO CON TARJETAS  EN LINEA DE CAJAS*  CON COMUNIDAD COTO - DEL 23/08/2022 AL 25/08/2022 O HASTA AGOTAR STOCK DE 18500 UNI,123.24,True,Av. San Pedrito 72,COTO CICSA,Capital Federal,Coto Centro Integral de Comercialización S.A.,12,MORIXE,Harina de Trigo 0000 Morixe 1 Kg,1.0 kg,2022-08-24,Cluster 1
1075280,1075280,sucursales,1,-34.5549061,-58.4870293,SAAVEDRA ,7790199000020,Hipermercado,AR-C,,,144.99,LLEVANDO ESTE ARTICULO 15% DE DTO CON TARJ. COMUNIDAD COTO CON TARJETAS  EN LINEA DE CAJAS*  CON COMUNIDAD COTO - DEL 23/08/2022 AL 25/08/2022 O HASTA AGOTAR STOCK DE 18500 UNI,123.24,True,Av. Ricardo Balbín 4027,COTO CICSA,Saavedra,Coto Centro Integral de Comercialización S.A.,12,MORIXE,Harina de Trigo 0000 Morixe 1 Kg,1.0 kg,2022-08-24,Cluster 1
1075281,1075281,sucursales,1,-34.7494248,-58.4002232, BANFIELD ,7790199000020,Supermercado,AR-B,,,144.99,LLEVANDO ESTE ARTICULO 15% DE DTO CON TARJ. COMUNIDAD COTO CON TARJETAS  EN LINEA DE CAJAS*  CON COMUNIDAD COTO - DEL 23/08/2022 AL 25/08/2022 O HASTA AGOTAR STOCK DE 18500 UNI,123.24,True,Av. Hipolito Yrigoyen 8028,COTO CICSA,Banfield,Coto Centro Integral de Comercialización S.A.,12,MORIXE,Harina de Trigo 0000 Morixe 1 Kg,1.0 kg,2022-08-24,Cluster 1
1075282,1075282,sucursales,1,-34.4531158,-58.7307037,TORTUGAS ,7790199000020,Hipermercado,AR-B,,,144.99,LLEVANDO ESTE ARTICULO 15% DE DTO CON TARJ. COMUNIDAD COTO CON TARJETAS  EN LINEA DE CAJAS*  CON COMUNIDAD COTO - DEL 23/08/2022 AL 25/08/2022 O HASTA AGOTAR STOCK DE 18500 UNI,123.24,True,Autopista Panamericana Km. 37.5 1667,COTO CICSA,Malvinas Argentinas,Coto Centro Integral de Comercialización S.A.,12,MORIXE,Harina de Trigo 0000 Morixe 1 Kg,1.0 kg,2022-08-24,Cluster 1
1075284,1075284,sucursales,1,-38.942149918,-68.06446909,NEUQUEN ,7790199000020,Hipermercado,AR-Q,,,153.69,LLEVANDO ESTE ARTICULO 15% DE DTO CON TARJ. COMUNIDAD COTO CON TARJETAS  EN LINEA DE CAJAS*  CON COMUNIDAD COTO - DEL 23/08/2022 AL 25/08/2022 O HASTA AGOTAR STOCK DE 18500 UNI,130.64,True,Dr Ramon 382,COTO CICSA,Neuquen,Coto Centro Integral de Comercialización S.A.,12,MORIXE,Harina de Trigo 0000 Morixe 1 Kg,1.0 kg,2022-08-24,Cluster 4
1075285,1075285,sucursales,1,-34.7269341,-58.3956649,LANUS ,7790199000020,Hipermercado,AR-B,,,144.99,LLEVANDO ESTE ARTICULO 15% DE DTO CON TARJ. COMUNIDAD COTO CON TARJETAS  EN LINEA DE CAJAS*  CON COMUNIDAD COTO - DEL 23/08/2022 AL 25/08/2022 O HASTA AGOTAR STOCK DE 18500 UNI,123.24,True,Av. Hipolito Yrigoyen 6174,COTO CICSA,Lanus,Coto Centro Integral de Comercialización S.A.,12,MORIXE,Harina de Trigo 0000 Morixe 1 Kg,1.0 kg,2022-08-24,Cluster 1
1075286,1075286,sucursales,1,-34.5239629,-58.5208208,MUNRO,7790199000020,Hipermercado,AR-B,,,144.99,LLEVANDO ESTE ARTICULO 15% DE DTO CON TARJ. COMUNIDAD COTO CON TARJETAS  EN LINEA DE CAJAS*  CON COMUNIDAD COTO - DEL 23/08/2022 AL 25/08/2022 O HASTA AGOTAR STOCK DE 18500 UNI,123.24,True,Av. Mitre 2951,COTO CICSA,Vicente Lopez,Coto Centro Integral de Comercialización S.A.,12,MORIXE,Harina de Trigo 0000 Morixe 1 Kg,1.0 kg,2022-08-24,Cluster 1
1075287,1075287,sucursales,1,-34.8440028,-58.507952,EZEIZA ,7790199000020,Hipermercado,AR-B,,,144.99,LLEVANDO ESTE ARTICULO 15% DE DTO CON TARJ. COMUNIDAD COTO CON TARJETAS  EN LINEA DE CAJAS*  CON COMUNIDAD COTO - DEL 23/08/2022 AL 25/08/2022 O HASTA AGOTAR STOCK DE 18500 UNI,123.24,True,Reconquista 1102,COTO CICSA,Ezeiza,Coto Centro Integral de Comercialización S.A.,12,MORIXE,Harina de Trigo 0000 Morixe 1 Kg,1.0 kg,2022-08-24,Cluster 1
1075288,1075288,sucursales,1,-34.626433,-58.382215,CONSTITUCION ,7790199000020,Supermercado,AR-C,,,144.99,LLEVANDO ESTE ARTICULO 15% DE DTO CON TARJ. COMUNIDAD COTO CON TARJETAS  EN LINEA DE CAJAS*  CON COMUNIDAD COTO - DEL 23/08/2022 AL 25/08/2022 O HASTA AGOTAR STOCK DE 18500 UNI,123.24,True,Lima 1553,COTO CICSA,Constitucion,Coto Centro Integral de Comercialización S.A.,12,MORIXE,Harina de Trigo 0000 Morixe 1 Kg,1.0 kg,2022-08-24,Cluster 1
1075289,1075289,sucursales,1,-34.474499,-58.574853,LA HORQUETA ,7790199000020,Hipermercado,AR-B,,,144.99,LLEVANDO ESTE ARTICULO 15% DE DTO CON TARJ. COMUNIDAD COTO CON TARJETAS  EN LINEA DE CAJAS*  CON COMUNIDAD COTO - DEL 23/08/2022 AL 25/08/2022 O HASTA AGOTAR STOCK DE 18500 UNI,123.24,True,Uruguay 4691,COTO CICSA,La Horqueta,Coto Centro Integral de Comercialización S.A.,12,MORIXE,Harina de Trigo 0000 Morixe 1 Kg,1.0 kg,2022-08-24,Cluster 1
1075290,1075290,sucursales,1,-34.4179366,-58.7255946,GARIN ,7790199000020,Hipermercado,AR-B,,,144.99,LLEVANDO ESTE ARTICULO 15% DE DTO CON TARJ. COMUNIDAD COTO CON TARJETAS  EN LINEA DE CAJAS*  CON COMUNIDAD COTO - DEL 23/08/2022 AL 25/08/2022 O HASTA AGOTAR STOCK DE 18500 UNI,123.24,True,Av. Belgrano 950,COTO CICSA,Garin,Coto Centro Integral de Comercialización S.A.,12,MORIXE,Harina de Trigo 0000 Morixe 1 Kg,1.0 kg,2022-08-24,Cluster 1
1075291,1075291,sucursales,1,-34.640349,-58.655782,CASTELAR ,7790199000020,Hipermercado,AR-B,,,144.99,LLEVANDO ESTE ARTICULO 15% DE DTO CON TARJ. COMUNIDAD COTO CON TARJETAS  EN LINEA DE CAJAS*  CON COMUNIDAD COTO - DEL 23/08/2022 AL 25/08/2022 O HASTA AGOTAR STOCK DE 18500 UNI,123.24,True,Santa Rosa 1753,COTO CICSA,Castelar,Coto Centro Integral de Comercialización S.A.,12,MORIXE,Harina de Trigo 0000 Morixe 1 Kg,1.0 kg,2022-08-24,Cluster 1
1075292,1075292,sucursales,1,-34.6048231,-58.4571361,AV.SAN MARTIN,7790199000020,Supermercado,AR-C,,,144.99,LLEVANDO ESTE ARTICULO 15% DE DTO CON TARJ. COMUNIDAD COTO CON TARJETAS  EN LINEA DE CAJAS*  CON COMUNIDAD COTO - DEL 23/08/2022 AL 25/08/2022 O HASTA AGOTAR STOCK DE 18500 UNI,123.24,True,Av. San Martín 2095,COTO CICSA,Paternal,Coto Centro Integral de Comercialización S.A.,12,MORIXE,Harina de Trigo 0000 Morixe 1 Kg,1.0 kg,2022-08-24,Cluster 1
1075293,1075293,sucursales,1,-34.578357,-58.460232,AV EL CANO ,7790199000020,Supermercado,AR-C,,,144.99,LLEVANDO ESTE ARTICULO 15% DE DTO CON TARJ. COMUNIDAD COTO CON TARJETAS  EN LINEA DE CAJAS*  CON COMUNIDAD COTO - DEL 23/08/2022 AL 25/08/2022 O HASTA AGOTAR STOCK DE 18500 UNI,123.24,True,Av. Elcano 3693,COTO CICSA,Belgrano,Coto Centro Integral de Comercialización S.A.,12,MORIXE,Harina de Trigo 0000 Morixe 1 Kg,1.0 kg,2022-08-24,Cluster 1
1075294,1075294,sucursales,1,-36.58216639,-56.71463675,MAR DEL TUYU ,7790199000020,Hipermercado,AR-B,,,144.99,LLEVANDO ESTE ARTICULO 15% DE DTO CON TARJ. COMUNIDAD COTO CON TARJETAS  EN LINEA DE CAJAS*  CON COMUNIDAD COTO - DEL 23/08/2022 AL 25/08/2022 O HASTA AGOTAR STOCK DE 18500 UNI,123.24,True,Ruta 11 Km 330,COTO CICSA,General Lavalle,Coto Centro Integral de Comercialización S.A.,12,MORIXE,Harina de Trigo 0000 Morixe 1 Kg,1.0 kg,2022-08-24,Cluster 1
1075295,1075295,sucursales,1,-34.6668202,-58.703197,MERLO                                                       ,7790199000020,Hipermercado,AR-B,,,144.99,LLEVANDO ESTE ARTICULO 15% DE DTO CON TARJ. COMUNIDAD COTO CON TARJETAS  EN LINEA DE CAJAS*  CON COMUNIDAD COTO - DEL 23/08/2022 AL 25/08/2022 O HASTA AGOTAR STOCK DE 18500 UNI,123.24,True,Av. Juan Domingo Peron 24080,COTO CICSA,San Antonio De Padua,Coto Centro Integral de Comercialización S.A.,12,MORIXE,Harina de Trigo 0000 Morixe 1 Kg,1.0 kg,2022-08-24,Cluster 1
1075296,1075296,sucursales,1,-32.871591,-68.843574,MENDOZA ,7790199000020,Hipermercado,AR-M,,,144.99,LLEVANDO ESTE ARTICULO 15% DE DTO CON TARJ. COMUNIDAD COTO CON TARJETAS  EN LINEA DE CAJAS*  CON COMUNIDAD COTO - DEL 23/08/2022 AL 25/08/2022 O HASTA AGOTAR STOCK DE 18500 UNI,123.24,True,Av. Peru 2760,COTO CICSA,Mendoza,Coto Centro Integral de Comercialización S.A.,12,MORIXE,Harina de Trigo 0000 Morixe 1 Kg,1.0 kg,2022-08-24,Cluster 1
1075297,1075297,sucursales,1,-34.6502131,-58.6264209,MORON ,7790199000020,Hipermercado,AR-B,,,144.99,LLEVANDO ESTE ARTICULO 15% DE DTO CON TARJ. COMUNIDAD COTO CON TARJETAS  EN LINEA DE CAJAS*  CON COMUNIDAD COTO - DEL 23/08/2022 AL 25/08/2022 O HASTA AGOTAR STOCK DE 18500 UNI,123.24,True,Gral. Juan Jose Valle 51,COTO CICSA,Moron,Coto Centro Integral de Comercialización S.A.,12,MORIXE,Harina de Trigo 0000 Morixe 1 Kg,1.0 kg,2022-08-24,Cluster 1
1075298,1075298,sucursales,1,-34.6407405,-58.79411649999,MORENO                                                      ,7790199000020,Hipermercado,AR-B,,,144.99,LLEVANDO ESTE ARTICULO 15% DE DTO CON TARJ. COMUNIDAD COTO CON TARJETAS  EN LINEA DE CAJAS*  CON COMUNIDAD COTO - DEL 23/08/2022 AL 25/08/2022 O HASTA AGOTAR STOCK DE 18500 UNI,123.24,True,Av. Victorica 660,COTO CICSA,Moreno,Coto Centro Integral de Comercialización S.A.,12,MORIXE,Harina de Trigo 0000 Morixe 1 Kg,1.0 kg,2022-08-24,Cluster 1
1075299,1075299,sucursales,1,-34.571895,-58.458683,ELCANO ,7790199000020,Supermercado,AR-C,,,144.99,LLEVANDO ESTE ARTICULO 15% DE DTO CON TARJ. COMUNIDAD COTO CON TARJETAS  EN LINEA DE CAJAS*  CON COMUNIDAD COTO - DEL 23/08/2022 AL 25/08/2022 O HASTA AGOTAR STOCK DE 18500 UNI,123.24,True,Av. Elcano 3002,COTO CICSA,Belgrano,Coto Centro Integral de Comercialización S.A.,12,MORIXE,Harina de Trigo 0000 Morixe 1 Kg,1.0 kg,2022-08-24,Cluster 1
1075300,1075300,sucursales,1,-34.6320834,-58.3760678,BARRACAS,7790199000020,Hipermercado,AR-C,,,144.99,LLEVANDO ESTE ARTICULO 15% DE DTO CON TARJ. COMUNIDAD COTO CON TARJETAS  EN LINEA DE CAJAS*  CON COMUNIDAD COTO - DEL 23/08/2022 AL 25/08/2022 O HASTA AGOTAR STOCK DE 18500 UNI,123.24,True,Gaspar M De Jovellanos 151,COTO CICSA,Caba,Coto Centro Integral de Comercialización S.A.,12,MORIXE,Harina de Trigo 0000 Morixe 1 Kg,1.0 kg,2022-08-24,Cluster 1
1075301,1075301,sucursales,1,-34.5902858,-58.4240622,SCALABRINI ORTIZ ,7790199000020,Supermercado,AR-C,,,144.99,LLEVANDO ESTE ARTICULO 15% DE DTO CON TARJ. COMUNIDAD COTO CON TARJETAS  EN LINEA DE CAJAS*  CON COMUNIDAD COTO - DEL 23/08/2022 AL 25/08/2022 O HASTA AGOTAR STOCK DE 18500 UNI,123.24,True,Av. Scalabrini Ortiz 1688,COTO CICSA,Palermo,Coto Centro Integral de Comercialización S.A.,12,MORIXE,Harina de Trigo 0000 Morixe 1 Kg,1.0 kg,2022-08-24,Cluster 1
1075302,1075302,sucursales,1,-34.6255187,-58.3736292,SAN TELMO ,7790199000020,Supermercado,AR-C,,,144.99,LLEVANDO ESTE ARTICULO 15% DE DTO CON TARJ. COMUNIDAD COTO CON TARJETAS  EN LINEA DE CAJAS*  CON COMUNIDAD COTO - DEL 23/08/2022 AL 25/08/2022 O HASTA AGOTAR STOCK DE 18500 UNI,123.24,True,Perú 1496,COTO CICSA,San Telmo,Coto Centro Integral de Comercialización S.A.,12,MORIXE,Harina de Trigo 0000 Morixe 1 Kg,1.0 kg,2022-08-24,Cluster 1
1075303,1075303,sucursales,1,-34.580229,-58.408608,CERVINO ,7790199000020,Supermercado,AR-C,,,144.99,LLEVANDO ESTE ARTICULO 15% DE DTO CON TARJ. COMUNIDAD COTO CON TARJETAS  EN LINEA DE CAJAS*  CON COMUNIDAD COTO - DEL 23/08/2022 AL 25/08/2022 O HASTA AGOTAR STOCK DE 18500 UNI,123.24,True,Cerviño 3515,COTO CICSA,Palermo,Coto Centro Integral de Comercialización S.A.,12,MORIXE,Harina de Trigo 0000 Morixe 1 Kg,1.0 kg,2022-08-24,Cluster 1
1075304,1075304,sucursales,1,-34.618273,-58.519287,LOPEZ DE VEGA ,7790199000020,Supermercado,AR-C,,,144.99,LLEVANDO ESTE ARTICULO 15% DE DTO CON TARJ. COMUNIDAD COTO CON TARJETAS  EN LINEA DE CAJAS*  CON COMUNIDAD COTO - DEL 23/08/2022 AL 25/08/2022 O HASTA AGOTAR STOCK DE 18500 UNI,123.24,True,Av. Lope De Vega 2503,COTO CICSA,Villa Devoto,Coto Centro Integral de Comercialización S.A.,12,MORIXE,Harina de Trigo 0000 Morixe 1 Kg,1.0 kg,2022-08-24,Cluster 1
1075305,1075305,sucursales,1,-34.687601,-58.47536,LUGANO ,7790199000020,Supermercado,AR-C,,,144.99,LLEVANDO ESTE ARTICULO 15% DE DTO CON TARJ. COMUNIDAD COTO CON TARJETAS  EN LINEA DE CAJAS*  CON COMUNIDAD COTO - DEL 23/08/2022 AL 25/08/2022 O HASTA AGOTAR STOCK DE 18500 UNI,123.24,True,Av. Piedrabuena 4902,COTO CICSA,Lugano,Coto Centro Integral de Comercialización S.A.,12,MORIXE,Harina de Trigo 0000 Morixe 1 Kg,1.0 kg,2022-08-24,Cluster 1
1075306,1075306,sucursales,1,-34.533164,-58.5024536,FLORIDA ,7790199000020,Supermercado,AR-B,,,144.99,LLEVANDO ESTE ARTICULO 15% DE DTO CON TARJ. COMUNIDAD COTO CON TARJETAS  EN LINEA DE CAJAS*  CON COMUNIDAD COTO - DEL 23/08/2022 AL 25/08/2022 O HASTA AGOTAR STOCK DE 18500 UNI,123.24,True,Av. San Martin 3029,COTO CICSA,Florida,Coto Centro Integral de Comercialización S.A.,12,MORIXE,Harina de Trigo 0000 Morixe 1 Kg,1.0 kg,2022-08-24,Cluster 1
1075307,1075307,sucursales,1,-34.656142,-58.524475,EMILIO CASTRO ,7790199000020,Supermercado,AR-C,,,144.99,LLEVANDO ESTE ARTICULO 15% DE DTO CON TARJ. COMUNIDAD COTO CON TARJETAS  EN LINEA DE CAJAS*  CON COMUNIDAD COTO - DEL 23/08/2022 AL 25/08/2022 O HASTA AGOTAR STOCK DE 18500 UNI,123.24,True,Av. Emilio Castro 7661,COTO CICSA,Liniers,Coto Centro Integral de Comercialización S.A.,12,MORIXE,Harina de Trigo 0000 Morixe 1 Kg,1.0 kg,2022-08-24,Cluster 1
1075308,1075308,sucursales,1,-34.6380873,-58.4525728,AV.DEL TRABAJO ,7790199000020,Supermercado,AR-C,,,144.99,LLEVANDO ESTE ARTICULO 15% DE DTO CON TARJ. COMUNIDAD COTO CON TARJETAS  EN LINEA DE CAJAS*  CON COMUNIDAD COTO - DEL 23/08/2022 AL 25/08/2022 O HASTA AGOTAR STOCK DE 18500 UNI,123.24,True,Av. Eva Peron 2202,COTO CICSA,Flores Sur,Coto Centro Integral de Comercialización S.A.,12,MORIXE,Harina de Trigo 0000 Morixe 1 Kg,1.0 kg,2022-08-24,Cluster 1
1075309,1075309,sucursales,1,-34.6087141,-58.4309495,DIAZ VELEZ ,7790199000020,Hipermercado,AR-C,,,144.99,LLEVANDO ESTE ARTICULO 15% DE DTO CON TARJ. COMUNIDAD COTO CON TARJETAS  EN LINEA DE CAJAS*  CON COMUNIDAD COTO - DEL 23/08/2022 AL 25/08/2022 O HASTA AGOTAR STOCK DE 18500 UNI,123.24,True,Av. Diaz Velez 4531,COTO CICSA,Almagro,Coto Centro Integral de Comercialización S.A.,12,MORIXE,Harina de Trigo 0000 Morixe 1 Kg,1.0 kg,2022-08-24,Cluster 1
1075310,1075310,sucursales,1,-34.5970815,-58.4064955,PARAGUAY ,7790199000020,Supermercado,AR-C,,,144.99,LLEVANDO ESTE ARTICULO 15% DE DTO CON TARJ. COMUNIDAD COTO CON TARJETAS  EN LINEA DE CAJAS*  CON COMUNIDAD COTO - DEL 23/08/2022 AL 25/08/2022 O HASTA AGOTAR STOCK DE 18500 UNI,123.24,True,Paraguay 2672,COTO CICSA,Barrio Norte,Coto Centro Integral de Comercialización S.A.,12,MORIXE,Harina de Trigo 0000 Morixe 1 Kg,1.0 kg,2022-08-24,Cluster 1
1075311,1075311,sucursales,1,-34.6221132,-58.4164336,BOEDO ,7790199000020,Hipermercado,AR-C,,,144.99,LLEVANDO ESTE ARTICULO 15% DE DTO CON TARJ. COMUNIDAD COTO CON TARJETAS  EN LINEA DE CAJAS*  CON COMUNIDAD COTO - DEL 23/08/2022 AL 25/08/2022 O HASTA AGOTAR STOCK DE 18500 UNI,123.24,True,Av. Boedo 777,COTO CICSA,Boedo,Coto Centro Integral de Comercialización S.A.,12,MORIXE,Harina de Trigo 0000 Morixe 1 Kg,1.0 kg,2022-08-24,Cluster 1
1075312,1075312,sucursales,1,-34.5635828,-58.4684123,MONROE ,7790199000020,Supermercado,AR-C,,,144.99,LLEVANDO ESTE ARTICULO 15% DE DTO CON TARJ. COMUNIDAD COTO CON TARJETAS  EN LINEA DE CAJAS*  CON COMUNIDAD COTO - DEL 23/08/2022 AL 25/08/2022 O HASTA AGOTAR STOCK DE 18500 UNI,123.24,True,Av. Monroe 3284,COTO CICSA,Belgrano,Coto Centro Integral de Comercialización S.A.,12,MORIXE,Harina de Trigo 0000 Morixe 1 Kg,1.0 kg,2022-08-24,Cluster 1
1075313,1075313,sucursales,1,-34.5713409,-58.4420995,CABILDO ,7790199000020,Hipermercado,AR-C,,,144.99,LLEVANDO ESTE ARTICULO 15% DE DTO CON TARJ. COMUNIDAD COTO CON TARJETAS  EN LINEA DE CAJAS*  CON COMUNIDAD COTO - DEL 23/08/2022 AL 25/08/2022 O HASTA AGOTAR STOCK DE 18500 UNI,123.24,True,Av. Cabildo 545,COTO CICSA,Belgrano,Coto Centro Integral de Comercialización S.A.,12,MORIXE,Harina de Trigo 0000 Morixe 1 Kg,1.0 kg,2022-08-24,Cluster 1
1075314,1075314,sucursales,1,-34.6101883,-58.406752,ONCE ,7790199000020,Supermercado,AR-C,,,144.99,LLEVANDO ESTE ARTICULO 15% DE DTO CON TARJ. COMUNIDAD COTO CON TARJETAS  EN LINEA DE CAJAS*  CON COMUNIDAD COTO - DEL 23/08/2022 AL 25/08/2022 O HASTA AGOTAR STOCK DE 18500 UNI,123.24,True,Av. Rivadavia 2846,COTO CICSA,Once,Coto Centro Integral de Comercialización S.A.,12,MORIXE,Harina de Trigo 0000 Morixe 1 Kg,1.0 kg,2022-08-24,Cluster 1
1075315,1075315,sucursales,1,-34.5628202,-58.4588525,AMENABAR ,7790199000020,Hipermercado,AR-C,,,144.99,LLEVANDO ESTE ARTICULO 15% DE DTO CON TARJ. COMUNIDAD COTO CON TARJETAS  EN LINEA DE CAJAS*  CON COMUNIDAD COTO - DEL 23/08/2022 AL 25/08/2022 O HASTA AGOTAR STOCK DE 18500 UNI,123.24,True,Amenabar 2134,COTO CICSA,Belgrano,Coto Centro Integral de Comercialización S.A.,12,MORIXE,Harina de Trigo 0000 Morixe 1 Kg,1.0 kg,2022-08-24,Cluster 1
1075316,1075316,sucursales,1,-34.634479,-58.4640708,DIRECTORIO ,7790199000020,Supermercado,AR-C,,,144.99,LLEVANDO ESTE ARTICULO 15% DE DTO CON TARJ. COMUNIDAD COTO CON TARJETAS  EN LINEA DE CAJAS*  CON COMUNIDAD COTO - DEL 23/08/2022 AL 25/08/2022 O HASTA AGOTAR STOCK DE 18500 UNI,123.24,True,Av. Directorio 2647,COTO CICSA,Flores,Coto Centro Integral de Comercialización S.A.,12,MORIXE,Harina de Trigo 0000 Morixe 1 Kg,1.0 kg,2022-08-24,Cluster 1
1075317,1075317,sucursales,1,-36.7214462,-56.6768593,MAR DE AJO ,7790199000020,Hipermercado,AR-B,,,144.99,LLEVANDO ESTE ARTICULO 15% DE DTO CON TARJ. COMUNIDAD COTO CON TARJETAS  EN LINEA DE CAJAS*  CON COMUNIDAD COTO - DEL 23/08/2022 AL 25/08/2022 O HASTA AGOTAR STOCK DE 18500 UNI,123.24,True,San Martin 251,COTO CICSA,Mar De Ajo,Coto Centro Integral de Comercialización S.A.,12,MORIXE,Harina de Trigo 0000 Morixe 1 Kg,1.0 kg,2022-08-24,Cluster 1
1075318,1075318,sucursales,1,-34.6402654,-58.5617807,RAMOS MEJIA ,7790199000020,Hipermercado,AR-B,,,144.99,LLEVANDO ESTE ARTICULO 15% DE DTO CON TARJ. COMUNIDAD COTO CON TARJETAS  EN LINEA DE CAJAS*  CON COMUNIDAD COTO - DEL 23/08/2022 AL 25/08/2022 O HASTA AGOTAR STOCK DE 18500 UNI,123.24,True,Av. Rivadavia 13810,COTO CICSA,Ramos Mejia,Coto Centro Integral de Comercialización S.A.,12,MORIXE,Harina de Trigo 0000 Morixe 1 Kg,1.0 kg,2022-08-24,Cluster 1
1075319,1075319,sucursales,1,-34.6062442,-58.5106551,SANABRIA ,7790199000020,Supermercado,AR-C,,,144.99,LLEVANDO ESTE ARTICULO 15% DE DTO CON TARJ. COMUNIDAD COTO CON TARJETAS  EN LINEA DE CAJAS*  CON COMUNIDAD COTO - DEL 23/08/2022 AL 25/08/2022 O HASTA AGOTAR STOCK DE 18500 UNI,123.24,True,Sanabria 3320,COTO CICSA,Devoto,Coto Centro Integral de Comercialización S.A.,12,MORIXE,Harina de Trigo 0000 Morixe 1 Kg,1.0 kg,2022-08-24,Cluster 1
1075320,1075320,sucursales,1,-34.6002123,-58.5446567,SANTOS LUGARES ,7790199000020,Supermercado,AR-B,,,144.99,LLEVANDO ESTE ARTICULO 15% DE DTO CON TARJ. COMUNIDAD COTO CON TARJETAS  EN LINEA DE CAJAS*  CON COMUNIDAD COTO - DEL 23/08/2022 AL 25/08/2022 O HASTA AGOTAR STOCK DE 18500 UNI,123.24,True,Av. La Plata 3635,COTO CICSA,Santos Lugares,Coto Centro Integral de Comercialización S.A.,12,MORIXE,Harina de Trigo 0000 Morixe 1 Kg,1.0 kg,2022-08-24,Cluster 1
1075321,1075321,sucursales,1,-34.6290437,-58.481691,AVELLANEDA ,7790199000020,Supermercado,AR-C,,,144.99,LLEVANDO ESTE ARTICULO 15% DE DTO CON TARJ. COMUNIDAD COTO CON TARJETAS  EN LINEA DE CAJAS*  CON COMUNIDAD COTO - DEL 23/08/2022 AL 25/08/2022 O HASTA AGOTAR STOCK DE 18500 UNI,123.24,True,Av. Avellaneda 3758,COTO CICSA,Floresta,Coto Centro Integral de Comercialización S.A.,12,MORIXE,Harina de Trigo 0000 Morixe 1 Kg,1.0 kg,2022-08-24,Cluster 1
1075322,1075322,sucursales,1,-34.5941284,-58.417548,HONDURAS ,7790199000020,Hipermercado,AR-C,,,144.99,LLEVANDO ESTE ARTICULO 15% DE DTO CON TARJ. COMUNIDAD COTO CON TARJETAS  EN LINEA DE CAJAS*  CON COMUNIDAD COTO - DEL 23/08/2022 AL 25/08/2022 O HASTA AGOTAR STOCK DE 18500 UNI,123.24,True,Honduras 3862,COTO CICSA,Palermo,Coto Centro Integral de Comercialización S.A.,12,MORIXE,Harina de Trigo 0000 Morixe 1 Kg,1.0 kg,2022-08-24,Cluster 1
1075323,1075323,sucursales,1,-34.5791981,-58.5361636,SAN MARTIN ,7790199000020,Supermercado,AR-B,,,144.99,LLEVANDO ESTE ARTICULO 15% DE DTO CON TARJ. COMUNIDAD COTO CON TARJETAS  EN LINEA DE CAJAS*  CON COMUNIDAD COTO - DEL 23/08/2022 AL 25/08/2022 O HASTA AGOTAR STOCK DE 18500 UNI,123.24,True,San Martin 122,COTO CICSA,San Martin,Coto Centro Integral de Comercialización S.A.,12,MORIXE,Harina de Trigo 0000 Morixe 1 Kg,1.0 kg,2022-08-24,Cluster 1
1075324,1075324,sucursales,1,-34.6006805,-58.3891667,VIAMONTE ,7790199000020,Hipermercado,AR-C,,,144.99,LLEVANDO ESTE ARTICULO 15% DE DTO CON TARJ. COMUNIDAD COTO CON TARJETAS  EN LINEA DE CAJAS*  CON COMUNIDAD COTO - DEL 23/08/2022 AL 25/08/2022 O HASTA AGOTAR STOCK DE 18500 UNI,123.24,True,Viamonte 1571,COTO CICSA,Tribunales,Coto Centro Integral de Comercialización S.A.,12,MORIXE,Harina de Trigo 0000 Morixe 1 Kg,1.0 kg,2022-08-24,Cluster 1
1075325,1075325,sucursales,1,-34.5740766,-58.4859548,URQUIZA ,7790199000020,Supermercado,AR-C,,,144.99,LLEVANDO ESTE ARTICULO 15% DE DTO CON TARJ. COMUNIDAD COTO CON TARJETAS  EN LINEA DE CAJAS*  CON COMUNIDAD COTO - DEL 23/08/2022 AL 25/08/2022 O HASTA AGOTAR STOCK DE 18500 UNI,123.24,True,Av. Monroe 5055,COTO CICSA,Villa Urquiza,Coto Centro Integral de Comercialización S.A.,12,MORIXE,Harina de Trigo 0000 Morixe 1 Kg,1.0 kg,2022-08-24,Cluster 1
1075326,1075326,sucursales,1,-34.64267,-58.422711,AV. LA PLATA ,7790199000020,Supermercado,AR-C,,,144.99,LLEVANDO ESTE ARTICULO 15% DE DTO CON TARJ. COMUNIDAD COTO CON TARJETAS  EN LINEA DE CAJAS*  CON COMUNIDAD COTO - DEL 23/08/2022 AL 25/08/2022 O HASTA AGOTAR STOCK DE 18500 UNI,123.24,True,Av. La Plata 2392,COTO CICSA,Pompeya,Coto Centro Integral de Comercialización S.A.,12,MORIXE,Harina de Trigo 0000 Morixe 1 Kg,1.0 kg,2022-08-24,Cluster 1
1075327,1075327,sucursales,1,-34.6281676,-58.453314,ALBERDI ,7790199000020,Hipermercado,AR-C,,,144.99,LLEVANDO ESTE ARTICULO 15% DE DTO CON TARJ. COMUNIDAD COTO CON TARJETAS  EN LINEA DE CAJAS*  CON COMUNIDAD COTO - DEL 23/08/2022 AL 25/08/2022 O HASTA AGOTAR STOCK DE 18500 UNI,123.24,True,Av.  J.B. Alberdi 1737,COTO CICSA,Flores,Coto Centro Integral de Comercialización S.A.,12,MORIXE,Harina de Trigo 0000 Morixe 1 Kg,1.0 kg,2022-08-24,Cluster 1
1075328,1075328,sucursales,1,-34.6119916,-58.3989244,SPINETTO ,7790199000020,Hipermercado,AR-C,,,144.99,LLEVANDO ESTE ARTICULO 15% DE DTO CON TARJ. COMUNIDAD COTO CON TARJETAS  EN LINEA DE CAJAS*  CON COMUNIDAD COTO - DEL 23/08/2022 AL 25/08/2022 O HASTA AGOTAR STOCK DE 18500 UNI,123.24,True,Alsina 2300,COTO CICSA,Once,Coto Centro Integral de Comercialización S.A.,12,MORIXE,Harina de Trigo 0000 Morixe 1 Kg,1.0 kg,2022-08-24,Cluster 1
1075329,1075329,sucursales,1,-34.654144,-58.4196788,POMPEYA ,7790199000020,Hipermercado,AR-C,,,144.99,LLEVANDO ESTE ARTICULO 15% DE DTO CON TARJ. COMUNIDAD COTO CON TARJETAS  EN LINEA DE CAJAS*  CON COMUNIDAD COTO - DEL 23/08/2022 AL 25/08/2022 O HASTA AGOTAR STOCK DE 18500 UNI,123.24,True,Av. Francisco Rabanal 1345,COTO CICSA,Pompeya,Coto Centro Integral de Comercialización S.A.,12,MORIXE,Harina de Trigo 0000 Morixe 1 Kg,1.0 kg,2022-08-24,Cluster 1
1075330,1075330,sucursales,1,-34.6831706,-58.3429383,SARANDI ,7790199000020,Hipermercado,AR-B,,,144.99,LLEVANDO ESTE ARTICULO 15% DE DTO CON TARJ. COMUNIDAD COTO CON TARJETAS  EN LINEA DE CAJAS*  CON COMUNIDAD COTO - DEL 23/08/2022 AL 25/08/2022 O HASTA AGOTAR STOCK DE 18500 UNI,123.24,True,Av. Mitre 3300,COTO CICSA,Sarandi,Coto Centro Integral de Comercialización S.A.,12,MORIXE,Harina de Trigo 0000 Morixe 1 Kg,1.0 kg,2022-08-24,Cluster 1
